name,scope,venue_series,item_type,region,country,country_code,series,year,lat,lng,image_url,hobbydb_url,more_info_url,notes,sub_collection,variant_of,variant_notes
Disney California Adventure,city,,mug,California,United States,US,Been There Disney Parks,2019,33.8049,-117.9212,https://starbucks-mugs.com/wp-content/uploads/2019/04/bt_cali_adventure.jpg,,https://starbucks-mugs.com/mug/been-there-disney-california-adventure/,"Disneyland Resort, Anaheim",,,
Disneyland,city,,mug,California,United States,US,Been There Disney Parks,2019,33.8121,-117.919,https://starbucks-mugs.com/wp-content/uploads/2019/04/bt_disneyland.jpg,,https://starbucks-mugs.com/mug/been-there-disney-disneyland/,"Disneyland Resort, Anaheim",,,
Magic Kingdom,city,,mug,Florida,United States,US,Been There Disney Parks,2019,28.4177,-81.5812,https://starbucks-mugs.com/wp-content/uploads/2019/04/bt_magic_kingdom_release_preview.jpg,,https://starbucks-mugs.com/mug/been-there-disney-magic-kingdom/,"Walt Disney World, Orlando",,,
EPCOT,city,,mug,Florida,United States,US,Been There Disney Parks,2019,28.3747,-81.5494,https://starbucks-mugs.com/wp-content/uploads/2019/04/bt_disney_epcot_1_1.jpg,,https://starbucks-mugs.com/mug/been-there-disney-epcot/,"Walt Disney World, Orlando",,,
Animal Kingdom,city,,mug,Florida,United States,US,Been There Disney Parks,2019,28.3553,-81.5899,https://starbucks-mugs.com/wp-content/uploads/2019/04/bt_disney_ak_1_1.jpg,,https://starbucks-mugs.com/mug/been-there-disney-animal-kingdom/,"Walt Disney World, Orlando",,,
Hollywood Studios,city,,mug,Florida,United States,US,Been There Disney Parks,2019,28.3575,-81.5584,https://starbucks-mugs.com/wp-content/uploads/2019/04/bt_disney_hs_1_1.jpg,,https://starbucks-mugs.com/mug/been-there-disney-hollywood-studios/,"Walt Disney World, Orlando",,,
Wakanda,themed,Been There Disney Parks,mug,,,,Been There Marvel,2021,0,0,https://starbucks-mugs.com/wp-content/uploads/2023/08/bt_wakana_main_876.jpg,,https://starbucks-mugs.com/mug/been-there-marvel-wakanda/,Black Panther / Wakanda — sold at Disney parks worldwide,,,
Firenze,city,,mug,,Italy,IT,You Are Here,2015,43.7696,11.2558,https://starbucks-mugs.com/wp-content/uploads/2026/02/yah_firenze_main.jpg,,https://starbucks-mugs.com/mug/you-are-here-firenze/,,,,
Torino,city,,mug,,Italy,IT,You Are Here,2015,45.0703,7.6869,https://starbucks-mugs.com/wp-content/uploads/2025/11/yah_torino_main.jpg,,https://starbucks-mugs.com/mug/you-are-here-torino/,,,,
Italia,city,,mug,,Italy,IT,You Are Here,2015,41.8719,12.5674,https://starbucks-mugs.com/wp-content/uploads/2025/06/yah_italia_main.jpg,,https://starbucks-mugs.com/mug/you-are-here-italia/,,,,
Milano,city,,mug,,Italy,IT,You Are Here,2015,45.4642,9.19,https://starbucks-mugs.com/wp-content/uploads/2025/08/yah_milano_1.jpg,,https://starbucks-mugs.com/mug/you-are-here-milano/,,,,
Kosice,city,,mug,,Slovakia,SK,You Are Here,2015,48.7163,21.2611,https://starbucks-mugs.com/wp-content/uploads/2025/04/yah_kosice_main.jpg,,https://starbucks-mugs.com/mug/you-are-here-kosice/,,,,
Brno,city,,mug,,Czech Republic,CZ,You Are Here,2015,49.1951,16.6068,https://starbucks-mugs.com/wp-content/uploads/2025/04/yah_brno_main.jpg,,https://starbucks-mugs.com/mug/you-are-here-brno/,,,,
Iceland,country,,mug,,Iceland,IS,You Are Here,2015,0,0,https://starbucks-mugs.com/wp-content/uploads/2025/07/yah_iceland_main_a.jpg,,https://starbucks-mugs.com/mug/you-are-here-iceland/,,,,
Plzen,city,,mug,,Czech Republic,CZ,You Are Here,2015,49.7384,13.3736,https://starbucks-mugs.com/wp-content/uploads/2025/04/yah_plzen_main.jpg,,https://starbucks-mugs.com/mug/you-are-here-plzen/,,,,
Roma,city,,mug,,Italy,IT,You Are Here,2015,41.9028,12.4964,https://starbucks-mugs.com/wp-content/uploads/2025/06/yah_roma_main.jpg,,https://starbucks-mugs.com/mug/you-are-here-roma/,,,,
Ceske Budejovice,city,,mug,,Czech Republic,CZ,You Are Here,2015,48.9745,14.4742,https://starbucks-mugs.com/wp-content/uploads/2025/04/yah_Ceske_Budejovice_main.jpg,,https://starbucks-mugs.com/mug/you-are-here-ceske-budejovice/,,,,
Kazakhstan,country,,mug,,Kazakhstan,KZ,You Are Here,2015,0,0,https://starbucks-mugs.com/wp-content/uploads/2025/04/yah_kazakhstan_main.jpg,,https://starbucks-mugs.com/mug/you-are-here-kazakhstan/,,,,
Almaty,city,,mug,,Kazakhstan,KZ,You Are Here,2015,43.222,76.8512,https://starbucks-mugs.com/wp-content/uploads/2025/03/yah_almaty_main.jpg,,https://starbucks-mugs.com/mug/you-are-here-almaty/,,,,
Torun,city,,mug,,Poland,PL,You Are Here,2015,53.0138,18.5984,https://starbucks-mugs.com/wp-content/uploads/2025/03/yah_torun_main.jpg,,https://starbucks-mugs.com/mug/you-are-here-torun/,,,,
Baku,city,,mug,,Azerbaijan,AZ,You Are Here,2015,40.4093,49.8671,https://starbucks-mugs.com/wp-content/uploads/2025/02/yah_baku_main.jpg,,https://starbucks-mugs.com/mug/you-are-here-baku/,,,,
Al Madinah,city,,mug,,Saudi Arabia,SA,You Are Here,2015,24.5247,39.5692,https://starbucks-mugs.com/wp-content/uploads/2025/02/yah_al_madinah_main.jpg,,https://starbucks-mugs.com/mug/you-are-here-al-madinah/,,,,
Belfort,city,,mug,,France,FR,You Are Here,2015,47.638,6.8635,https://starbucks-mugs.com/wp-content/uploads/2024/12/yah_belfort_main.jpg,,https://starbucks-mugs.com/mug/you-are-here-belfort/,,,,
Le Mans,city,,mug,,France,FR,You Are Here,2015,48.0061,0.1996,https://starbucks-mugs.com/wp-content/uploads/2024/11/yah_lemans_main.jpg,,https://starbucks-mugs.com/mug/you-are-here-le-mans/,,,,
Venezia,city,,mug,,Italy,IT,You Are Here,2015,45.4408,12.3155,https://starbucks-mugs.com/wp-content/uploads/2024/10/yah_venezia_main.jpg,,https://starbucks-mugs.com/mug/you-are-here-venezia/,,,,
Bydgoszcz,city,,mug,,Poland,PL,You Are Here,2015,53.1235,18.0084,https://starbucks-mugs.com/wp-content/uploads/2024/09/yah_Bydgoszcz_main-1.jpg,,https://starbucks-mugs.com/mug/you-are-here-bydgoszcz/,,,,
Katowice,city,,mug,,Poland,PL,You Are Here,2015,50.2599,19.0216,https://starbucks-mugs.com/wp-content/uploads/2024/09/yah_katowice_main.jpg,,https://starbucks-mugs.com/mug/you-are-here-katowice/,,,,
Kapadokya,city,,mug,,Turkey,TR,You Are Here,2015,38.6431,34.8289,https://starbucks-mugs.com/wp-content/uploads/2024/07/yah_kapadokya_main.jpg,,https://starbucks-mugs.com/mug/you-are-here-kapadokya/,,,,
Kusadasi,city,,mug,,Turkey,TR,You Are Here,2015,37.856,27.2594,https://starbucks-mugs.com/wp-content/uploads/2024/03/yah_KUSADASI_main.jpg,,https://starbucks-mugs.com/mug/you-are-here-kusadasi/,,,,
Sofia,city,,mug,,Bulgaria,BG,You Are Here,2015,42.6977,23.3219,https://starbucks-mugs.com/wp-content/uploads/2024/03/yah_sofia_main.jpg,,https://starbucks-mugs.com/mug/you-are-here-sofia/,,,,
Bursa,city,,mug,,Turkey,TR,You Are Here,2015,40.1885,29.061,https://starbucks-mugs.com/wp-content/uploads/2024/03/yah_bursa_main.jpg,,https://starbucks-mugs.com/mug/you-are-here-bursa/,,,,
Trojmiasto,city,,mug,,Poland,PL,You Are Here,2015,54.352,18.6466,https://starbucks-mugs.com/wp-content/uploads/2024/08/yah_Trojmiasto_main.jpg,,https://starbucks-mugs.com/mug/you-are-here-trojmiasto/,,,,
Mecca,city,,mug,,Saudi Arabia,SA,You Are Here,2015,21.3891,39.8579,https://starbucks-mugs.com/wp-content/uploads/2024/05/yah_mecca_main.jpg,,https://starbucks-mugs.com/mug/you-are-here-mecca/,,,,
Groningen,city,,mug,,Netherlands,NL,You Are Here,2015,53.2194,6.5665,https://starbucks-mugs.com/wp-content/uploads/2024/07/yah_Groningen_main.jpg,,https://starbucks-mugs.com/mug/you-are-here-groningen/,,,,
Napoli,city,,mug,,Italy,IT,You Are Here,2015,40.8518,14.2681,https://starbucks-mugs.com/wp-content/uploads/2024/05/yah_napoli_main.jpg,,https://starbucks-mugs.com/mug/you-are-here-napoli/,,,,
Kristiansand,city,,mug,,Norway,NO,You Are Here,2015,58.1599,7.9957,https://starbucks-mugs.com/wp-content/uploads/2024/07/yah_Kristiansand_main.jpg,,https://starbucks-mugs.com/mug/you-are-here-kristiansand/,,,,
Perpignan,city,,mug,,France,FR,You Are Here,2015,42.6887,2.8948,https://starbucks-mugs.com/wp-content/uploads/2024/05/yah_perpignan_main.jpg,,https://starbucks-mugs.com/mug/you-are-here-perpignan/,,,,
Rzeszow,city,,mug,,Poland,PL,You Are Here,2015,50.0413,21.999,https://starbucks-mugs.com/wp-content/uploads/2024/06/yah_Rzeszow_main.jpg,,https://starbucks-mugs.com/mug/you-are-here-rzeszow/,,,,
Le Havre,city,,mug,,France,FR,You Are Here,2015,49.4944,0.1079,https://starbucks-mugs.com/wp-content/uploads/2024/06/yah_le_havre_main.jpg,,https://starbucks-mugs.com/mug/you-are-here-le-havre/,,,,
Turkiye,city,,mug,,Turkey,TR,You Are Here,2015,39.9334,32.8597,https://starbucks-mugs.com/wp-content/uploads/2024/05/yah_turkiye_main.jpg,,https://starbucks-mugs.com/mug/you-are-here-turkiye/,,,,
Haguenau,city,,mug,,France,FR,You Are Here,2015,48.8153,7.7894,https://starbucks-mugs.com/wp-content/uploads/2024/05/yah_haguenau_main.jpg,,https://starbucks-mugs.com/mug/you-are-here-haguenau/,,,,
Lillehammer,city,,mug,,Norway,NO,You Are Here,2015,61.1152,10.4661,https://starbucks-mugs.com/wp-content/uploads/2024/06/yah_lillehammer_main.jpg,,https://starbucks-mugs.com/mug/you-are-here-lillehammer/,,,,
Albi,city,,mug,,France,FR,You Are Here,2015,43.9277,2.1484,https://starbucks-mugs.com/wp-content/uploads/2024/04/yah_albi_main.jpg,,https://starbucks-mugs.com/mug/you-are-here-albi/,,,,
Aix En Provence,city,,mug,,France,FR,You Are Here,2015,43.5297,5.4474,https://starbucks-mugs.com/wp-content/uploads/2024/02/yah_aix_en_provence_main.jpg,,https://starbucks-mugs.com/mug/you-are-here-aix-en-provence/,,,,
Bologna,city,,mug,,Italy,IT,You Are Here,2015,44.4949,11.3426,https://starbucks-mugs.com/wp-content/uploads/2024/04/yah_bologna_main.jpg,,https://starbucks-mugs.com/mug/you-are-here-bologna/,,,,
Avignon,city,,mug,,France,FR,You Are Here,2015,43.9493,4.8055,https://starbucks-mugs.com/wp-content/uploads/2024/02/yah_avignon_main.jpg,,https://starbucks-mugs.com/mug/you-are-here-avignon/,,,,
Rouen,city,,mug,,France,FR,You Are Here,2015,49.4432,1.0993,https://starbucks-mugs.com/wp-content/uploads/2024/02/yah_rouen_main.jpg,,https://starbucks-mugs.com/mug/you-are-here-rouen/,,,,
Clermont Ferrand,city,,mug,,France,FR,You Are Here,2015,45.7797,3.0863,https://starbucks-mugs.com/wp-content/uploads/2024/02/yah_clermont_ferrand_main.jpg,,https://starbucks-mugs.com/mug/you-are-here-clermont-ferrand/,,,,
Ho Chi Minh City 2,city,,mug,,Vietnam,VN,You Are Here,2015,10.8231,106.6297,https://starbucks-mugs.com/wp-content/uploads/2024/03/yah_ho_chi_minh_v2_main.jpg,,https://starbucks-mugs.com/mug/you-are-here-ho-chi-minh-city-2/,,,Ho Chi Minh City,
Phu Quoc,city,,mug,,Vietnam,VN,You Are Here,2015,10.2899,103.984,https://starbucks-mugs.com/wp-content/uploads/2024/03/yah_phu_quoc_main.jpg,,https://starbucks-mugs.com/mug/you-are-here-phu-quoc/,,,,
Granada,city,,mug,,Spain,ES,You Are Here,2015,37.1773,-3.5986,https://starbucks-mugs.com/wp-content/uploads/2024/03/yah_granada_main.jpg,,https://starbucks-mugs.com/mug/you-are-here-granada/,,,,
Reims,city,,mug,,France,FR,You Are Here,2015,49.2583,4.0317,https://starbucks-mugs.com/wp-content/uploads/2024/02/yah_reims_main.jpg,,https://starbucks-mugs.com/mug/you-are-here-reims/,,,,
Cordoba,city,,mug,,Argentina,AR,You Are Here,2015,-31.4201,-64.1888,https://starbucks-mugs.com/wp-content/uploads/2024/03/yah_cordoba_main.jpg,,https://starbucks-mugs.com/mug/you-are-here-cordoba/,,,,
Bari,city,,mug,,Italy,IT,You Are Here,2015,41.1171,16.8719,https://starbucks-mugs.com/wp-content/uploads/2024/03/yah_bari_main.jpg,,https://starbucks-mugs.com/mug/you-are-here-bari/,,,,
Lodz,city,,mug,,Poland,PL,You Are Here,2015,51.7592,19.456,https://starbucks-mugs.com/wp-content/uploads/2024/03/yah_lodz_main.jpg,,https://starbucks-mugs.com/mug/you-are-here-lodz/,,,,
Paris 2024 Summer Olympics,city,,mug,,France,FR,You Are Here,2024,48.8566,2.3522,https://starbucks-mugs.com/wp-content/uploads/2024/03/yah_paris_2024_olympics_main.jpg,,https://starbucks-mugs.com/mug/you-are-here-paris-2024-summer-olympics/,,,,
Cluj Napoca,city,,mug,,Romania,RO,You Are Here,2015,46.7712,23.6236,https://starbucks-mugs.com/wp-content/uploads/2024/01/yah_cluj_napoca_main.jpg,,https://starbucks-mugs.com/mug/you-are-here-cluj-napoca/,,,,
Algarve,city,,mug,,Portugal,PT,You Are Here,2015,37.0179,-7.9307,https://starbucks-mugs.com/wp-content/uploads/2024/02/yah_algarve_main.jpg,,https://starbucks-mugs.com/mug/you-are-here-algarve/,,,,
Constanta,city,,mug,,Romania,RO,You Are Here,2015,44.1598,28.6348,https://starbucks-mugs.com/wp-content/uploads/2024/01/yah_constanta_main.jpg,,https://starbucks-mugs.com/mug/you-are-here-constanta/,,,,
Genova,city,,mug,,Italy,IT,You Are Here,2015,44.4056,8.9463,https://starbucks-mugs.com/wp-content/uploads/2023/11/yah_genova_main.jpg,,https://starbucks-mugs.com/mug/you-are-here-genova/,,,,
Caserta,city,,mug,,Italy,IT,You Are Here,2015,41.0726,14.3322,https://starbucks-mugs.com/wp-content/uploads/2024/02/yah_caserta_main.jpg,,https://starbucks-mugs.com/mug/you-are-here-caserta/,,,,
Brasov,city,,mug,,Romania,RO,You Are Here,2015,45.6427,25.5887,https://starbucks-mugs.com/wp-content/uploads/2024/02/yah_brasov_main.jpg,,https://starbucks-mugs.com/mug/you-are-here-brasov/,,,,
Amersfoort,city,,mug,,Netherlands,NL,You Are Here,2015,52.1561,5.3878,https://starbucks-mugs.com/wp-content/uploads/2024/02/yah_Amersfoort_main.jpg,,https://starbucks-mugs.com/mug/you-are-here-amersfoort/,,,,
Oktoberfest 2,city,,mug,,Germany,DE,You Are Here,2015,48.1351,11.582,https://starbucks-mugs.com/wp-content/uploads/2022/09/yah_oktoberfest_v2_main.jpg,,https://starbucks-mugs.com/mug/you-are-here-oktoberfest-2/,,,Oktoberfest,
Annecy,city,,mug,,France,FR,You Are Here,2015,45.8992,6.1294,https://starbucks-mugs.com/wp-content/uploads/2023/07/yah_annecy_main.jpg,,https://starbucks-mugs.com/mug/you-are-here-annecy/,,,,
Metz,city,,mug,,France,FR,You Are Here,2015,49.1193,6.1757,https://starbucks-mugs.com/wp-content/uploads/2023/07/yah_metz_main.jpg,,https://starbucks-mugs.com/mug/you-are-here-metz/,,,,
Angers,city,,mug,,France,FR,You Are Here,2015,47.4784,-0.5632,https://starbucks-mugs.com/wp-content/uploads/2023/07/yah_angers_main.jpg,,https://starbucks-mugs.com/mug/you-are-here-angers/,,,,
Verona,city,,mug,,Italy,IT,You Are Here,2015,45.4384,10.9916,https://starbucks-mugs.com/wp-content/uploads/2023/05/yah_verona_main.jpg,,https://starbucks-mugs.com/mug/you-are-here-verona/,,,,
Florence,city,,mug,,Italy,IT,You Are Here,2015,43.7696,11.2558,https://starbucks-mugs.com/wp-content/uploads/2023/05/yah_florence_main.jpg,,https://starbucks-mugs.com/mug/you-are-here-florence/,,,,
Tours,city,,mug,,France,FR,You Are Here,2015,47.3941,0.6848,https://starbucks-mugs.com/wp-content/uploads/2023/02/yah_tours_main_1.jpg,,https://starbucks-mugs.com/mug/you-are-here-tours/,,,,
Hoi An,city,,mug,,Vietnam,VN,You Are Here,2015,15.88,108.338,https://starbucks-mugs.com/wp-content/uploads/2022/12/yah_hoi_an_extram.jpg,,https://starbucks-mugs.com/mug/you-are-here-hoi-an/,,,,
Bergamo,city,,mug,,Italy,IT,You Are Here,2015,45.6983,9.6773,https://starbucks-mugs.com/wp-content/uploads/2023/05/yah_bergamo_main.jpg,,https://starbucks-mugs.com/mug/you-are-here-bergamo/,,,,
Chiang Mai,city,,mug,,Thailand,TH,You Are Here,2015,18.7883,98.9853,https://starbucks-mugs.com/wp-content/uploads/2023/05/yah_chang_mai_main.jpg,,https://starbucks-mugs.com/mug/you-are-here-chiang-mai/,,,,
Samui,city,,mug,,Thailand,TH,You Are Here,2015,9.512,100.0136,https://starbucks-mugs.com/wp-content/uploads/2023/05/yah_samui_main.jpg,,https://starbucks-mugs.com/mug/you-are-here-samui/,,,,
Cambridge Uk,city,,mug,,United Kingdom,GB,You Are Here,2015,52.2053,0.1218,https://starbucks-mugs.com/wp-content/uploads/2023/01/yah_cambridge_uk_1.jpg,,https://starbucks-mugs.com/mug/you-are-here-cambridge-uk/,,,,
Rennes,city,,mug,,France,FR,You Are Here,2015,48.1173,-1.6778,https://starbucks-mugs.com/wp-content/uploads/2022/12/yah_rennes_1.jpg,,https://starbucks-mugs.com/mug/you-are-here-rennes/,,,,
Pau,city,,mug,,France,FR,You Are Here,2015,43.2951,-0.3708,https://starbucks-mugs.com/wp-content/uploads/2022/12/yah_pau_1.jpeg,,https://starbucks-mugs.com/mug/you-are-here-pau/,,,,
Belgrade,city,,mug,,Serbia,RS,You Are Here,2015,44.8176,20.457,https://starbucks-mugs.com/wp-content/uploads/2023/04/yah_belgrade_main_876.jpeg,,https://starbucks-mugs.com/mug/you-are-here-belgrade/,,,,
Orleans,city,,mug,,France,FR,You Are Here,2015,47.9029,1.9039,https://starbucks-mugs.com/wp-content/uploads/2022/12/yah_orleans_1.jpg,,https://starbucks-mugs.com/mug/you-are-here-orleans/,,,,
Grenoble,city,,mug,,France,FR,You Are Here,2015,45.1885,5.7245,https://starbucks-mugs.com/wp-content/uploads/2022/11/yah_grenoble_1_876.jpg,,https://starbucks-mugs.com/mug/you-are-here-grenoble/,,,,
Bayonne,city,,mug,,France,FR,You Are Here,2015,43.4933,-1.4748,https://starbucks-mugs.com/wp-content/uploads/2022/12/yah_bayonne_1.jpg,,https://starbucks-mugs.com/mug/you-are-here-bayonne/,,,,
Eindhoven,city,,mug,,Netherlands,NL,You Are Here,2015,51.4416,5.4697,https://starbucks-mugs.com/wp-content/uploads/2022/11/yah_Eindhoven_1_876.jpg,,https://starbucks-mugs.com/mug/you-are-here-eindhoven/,,,,
Yorkshire,city,,mug,,United Kingdom,GB,You Are Here,2015,54,-1.5,https://starbucks-mugs.com/wp-content/uploads/2022/11/yah_yorkshire_1_876.jpg,,https://starbucks-mugs.com/mug/you-are-here-yorkshire/,,,,
Vienna 2,city,,mug,,Austria,AT,You Are Here,2015,48.2082,16.3738,https://starbucks-mugs.com/wp-content/uploads/2022/10/yah_vienna_v2_1.jpg,,https://starbucks-mugs.com/mug/you-are-here-vienna-2/,,,Vienna,
Ghent,city,,mug,,Belgium,BE,You Are Here,2015,51.0543,3.7174,https://starbucks-mugs.com/wp-content/uploads/2022/10/yah_ghent_main_876.jpg,,https://starbucks-mugs.com/mug/you-are-here-ghent/,,,,
Avengers Campus Disneyland Paris,city,,mug,,United States,US,You Are Here,2015,33.8121,-117.919,https://starbucks-mugs.com/wp-content/uploads/2022/10/yah_avengers_campus_disneyland_paris_1.jpg,,https://starbucks-mugs.com/mug/you-are-here-avengers-campus-disneyland-paris/,,,,
Christmas Sweden,country,,mug,,Sweden,SE,You Are Here,2015,0,0,https://starbucks-mugs.com/wp-content/uploads/2022/07/yahc_sweden_1_407.jpg,,https://starbucks-mugs.com/mug/you-are-here-christmas-sweden/,,,,
Innsbruck,city,,mug,,Austria,AT,You Are Here,2015,47.2692,11.4041,https://starbucks-mugs.com/wp-content/uploads/2022/05/yah_innsbruck_1_407.jpg,,https://starbucks-mugs.com/mug/you-are-here-innsbruck/,,,,
Rome,city,,mug,,Italy,IT,You Are Here,2015,41.9028,12.4964,https://starbucks-mugs.com/wp-content/uploads/2022/04/yah_rome_main.jpeg,,https://starbucks-mugs.com/mug/you-are-here-rome/,,,,
Disney Disneyland Paris 2,city,,mug,,United States,US,You Are Here,2015,33.8121,-117.919,https://starbucks-mugs.com/wp-content/uploads/2022/03/yah_disneyland_paris_30th_main_407.jpg,,https://starbucks-mugs.com/mug/you-are-here-disney-disneyland-paris-2/,,,Disney Disneyland Paris,
Montpellier,city,,mug,,France,FR,You Are Here,2015,43.6108,3.8767,https://starbucks-mugs.com/wp-content/uploads/2022/01/yah_montpellier_1_407.jpg,,https://starbucks-mugs.com/mug/you-are-here-montpellier/,,,,
Hulun Buir,city,,mug,,China,CN,You Are Here,2015,49.2129,119.7659,https://starbucks-mugs.com/wp-content/uploads/2021/10/yah_hulun_buir_1.jpg,,https://starbucks-mugs.com/mug/you-are-here-hulun-buir/,,,,
Euskadi,city,,mug,,Spain,ES,You Are Here,2015,43.0095,-2.6189,https://starbucks-mugs.com/wp-content/uploads/2021/06/yah_euskadi_1_1_407.jpg,,https://starbucks-mugs.com/mug/you-are-here-euskadi/,,,,
Christmas Glass Amsterdam,city,,mug,,Netherlands,NL,You Are Here,2015,52.3676,4.9041,https://starbucks-mugs.com/wp-content/uploads/2021/06/yah_glass_amsterdam_1_407.jpg,,https://starbucks-mugs.com/mug/you-are-here-christmas-glass-amsterdam/,,,,
Christmas Glass London,city,,mug,,United Kingdom,GB,You Are Here,2015,51.5074,-0.1278,https://starbucks-mugs.com/wp-content/uploads/2021/06/yah_glass_london_1_407.jpg,,https://starbucks-mugs.com/mug/you-are-here-christmas-glass-london/,,,,
Christmas Glass Paris,city,,mug,,France,FR,You Are Here,2015,48.8566,2.3522,https://starbucks-mugs.com/wp-content/uploads/2021/06/yah_glass_paris_1_407.jpg,,https://starbucks-mugs.com/mug/you-are-here-christmas-glass-paris/,,,,
Gdansk,city,,mug,,Poland,PL,You Are Here,2015,54.352,18.6466,https://starbucks-mugs.com/wp-content/uploads/2021/05/yah_gdansk_1_407.jpg,,https://starbucks-mugs.com/mug/you-are-here-gdansk/,,,,
Szczecin,city,,mug,,Poland,PL,You Are Here,2015,53.4285,14.5528,https://starbucks-mugs.com/wp-content/uploads/2021/05/yah_szczecin_1_407.jpg,,https://starbucks-mugs.com/mug/you-are-here-szczecin/,,,,
Nha Trang,city,,mug,,Vietnam,VN,You Are Here,2015,12.2388,109.1967,https://starbucks-mugs.com/wp-content/uploads/2021/04/yah_nha_trang_1_407.jpg,,https://starbucks-mugs.com/mug/you-are-here-nha-trang/,,,,
Karlovy Vary,city,,mug,,Czech Republic,CZ,You Are Here,2015,50.232,12.8713,https://starbucks-mugs.com/wp-content/uploads/2021/04/yah_karlovy_vary_1_407.jpg,,https://starbucks-mugs.com/mug/you-are-here-karlovy-vary/,,,,
St Andrews,city,,mug,,United Kingdom,GB,You Are Here,2015,56.3398,-2.7967,https://starbucks-mugs.com/wp-content/uploads/2021/04/yah_st_andrews_407.jpg,,https://starbucks-mugs.com/mug/you-are-here-st-andrews/,,,,
Zhangjiajie,city,,mug,,China,CN,You Are Here,2015,29.1248,110.4792,https://starbucks-mugs.com/wp-content/uploads/2019/08/yah_Zhangjiajie_1_407.jpg,,https://starbucks-mugs.com/mug/you-are-here-zhangjiajie/,,,,
Wroclaw,city,,mug,,Poland,PL,You Are Here,2015,51.1079,17.0385,https://starbucks-mugs.com/wp-content/uploads/2021/02/yah_wroclaw_407.jpg,,https://starbucks-mugs.com/mug/you-are-here-wroclaw/,,,,
Poznan,city,,mug,,Poland,PL,You Are Here,2015,52.4064,16.9252,https://starbucks-mugs.com/wp-content/uploads/2021/02/yah_poznan_407.jpg,,https://starbucks-mugs.com/mug/you-are-here-poznan/,,,,
Metzingen,city,,mug,,Germany,DE,You Are Here,2015,48.5333,9.2833,https://starbucks-mugs.com/wp-content/uploads/2021/02/yah_Metzingen_1_407.jpg,,https://starbucks-mugs.com/mug/you-are-here-metzingen/,,,,
Turin,city,,mug,,Italy,IT,You Are Here,2015,45.0703,7.6869,https://starbucks-mugs.com/wp-content/uploads/2021/02/yah_turin_main.jpg,,https://starbucks-mugs.com/mug/you-are-here-turin/,,,,
Christmas Luxembourg,country,,mug,,,,You Are Here,2015,0,0,https://starbucks-mugs.com/wp-content/uploads/2021/01/yahc_luxembourg.jpg,,https://starbucks-mugs.com/mug/you-are-here-christmas-luxembourg/,,,,
Alicante,city,,mug,,Spain,ES,You Are Here,2015,38.3452,-0.4815,https://starbucks-mugs.com/wp-content/uploads/2021/01/yah_alicante.jpg,,https://starbucks-mugs.com/mug/you-are-here-alicante/,,,,
Augsburg,city,,mug,,Germany,DE,You Are Here,2015,48.3705,10.8978,https://starbucks-mugs.com/wp-content/uploads/2021/01/yah_augsburg_preview.jpg,,https://starbucks-mugs.com/mug/you-are-here-augsburg/,,,,
Malaga,city,,mug,,Spain,ES,You Are Here,2015,36.7213,-4.4213,https://starbucks-mugs.com/wp-content/uploads/2021/01/yah_malaga_1_1.jpg,,https://starbucks-mugs.com/mug/you-are-here-malaga/,,,,
Stavanger,city,,mug,,Norway,NO,You Are Here,2015,58.97,5.7331,https://starbucks-mugs.com/wp-content/uploads/2020/11/yah_stavenger_1_1.jpg,,https://starbucks-mugs.com/mug/you-are-here-stavanger/,,,,
Colmar,city,,mug,,France,FR,You Are Here,2015,48.0793,7.358,https://starbucks-mugs.com/wp-content/uploads/2020/12/yah_colmar_407.jpg,,https://starbucks-mugs.com/mug/you-are-here-colmar/,,,,
Mulhouse,city,,mug,,France,FR,You Are Here,2015,47.7508,7.3359,https://starbucks-mugs.com/wp-content/uploads/2020/12/yah_mulhouse.jpg,,https://starbucks-mugs.com/mug/you-are-here-mulhouse/,,,,
Nancy,city,,mug,,France,FR,You Are Here,2015,48.6921,6.1844,https://starbucks-mugs.com/wp-content/uploads/2020/12/yah_nancy_407.jpg,,https://starbucks-mugs.com/mug/you-are-here-nancy/,,,,
Dijon,city,,mug,,France,FR,You Are Here,2015,47.322,5.0415,https://starbucks-mugs.com/wp-content/uploads/2020/12/yah_dijon_407.jpg,,https://starbucks-mugs.com/mug/you-are-here-dijon/,,,,
Trondheim,city,,mug,,Norway,NO,You Are Here,2015,63.4305,10.3951,https://starbucks-mugs.com/wp-content/uploads/2020/10/yah_trondheim.jpg,,https://starbucks-mugs.com/mug/you-are-here-trondheim/,,,,
Luxembourg,country,,mug,,Luxembourg,LU,You Are Here,2015,0,0,https://starbucks-mugs.com/wp-content/uploads/2020/11/yah_luxembourg_1_1_1_407.jpg,,https://starbucks-mugs.com/mug/you-are-here-luxembourg/,,,,
Antwerp,city,,mug,,Belgium,BE,You Are Here,2015,51.2194,4.4025,https://starbucks-mugs.com/wp-content/uploads/2020/11/yah_antwerp_1_407.jpg,,https://starbucks-mugs.com/mug/you-are-here-antwerp/,,,,
Christmas Turkey,country,,mug,,Turkey,TR,You Are Here,2015,0,0,https://starbucks-mugs.com/wp-content/uploads/2020/11/yaho_turkey_1_407.jpg,,https://starbucks-mugs.com/mug/you-are-here-christmas-turkey/,,,,
Cape Town,city,,mug,,South Africa,ZA,You Are Here,2015,-33.9249,18.4241,https://starbucks-mugs.com/wp-content/uploads/2020/11/yah_cape_town_1_1_407.jpg,,https://starbucks-mugs.com/mug/you-are-here-cape-town/,,,,
Christmas Ireland,country,,mug,,Ireland,IE,You Are Here,2015,0,0,https://starbucks-mugs.com/wp-content/uploads/2020/11/yahc_ireland_1_1_407.jpg,,https://starbucks-mugs.com/mug/you-are-here-christmas-ireland/,,,,
Christmas Cyprus,country,,mug,,Cyprus,CY,You Are Here,2015,0,0,https://starbucks-mugs.com/wp-content/uploads/2020/11/yahc_cyprus.jpg,,https://starbucks-mugs.com/mug/you-are-here-christmas-cyprus/,,,,
Christmas Malta,country,,mug,,Malta,MT,You Are Here,2015,0,0,https://starbucks-mugs.com/wp-content/uploads/2020/10/yahc_malta_main.jpg,,https://starbucks-mugs.com/mug/you-are-here-christmas-malta/,,,,
Wolfsburg,city,,mug,,Germany,DE,You Are Here,2015,52.4227,10.7865,https://starbucks-mugs.com/wp-content/uploads/2020/08/yah_wolfsburg_1_407.jpg,,https://starbucks-mugs.com/mug/you-are-here-wolfsburg/,,,,
Bratislava,city,,mug,,Slovakia,SK,You Are Here,2015,48.1486,17.1077,https://starbucks-mugs.com/wp-content/uploads/2020/07/yah_bratislava_1_407.jpg,,https://starbucks-mugs.com/mug/you-are-here-bratislava/,,,,
Riyadh,city,,mug,,Saudi Arabia,SA,You Are Here,2015,24.6877,46.7219,https://starbucks-mugs.com/wp-content/uploads/2020/05/yah_riyadh.jpg,,https://starbucks-mugs.com/mug/you-are-here-riyadh/,,,,
Thessaloniki,city,,mug,,Greece,GR,You Are Here,2015,40.6401,22.9444,https://starbucks-mugs.com/wp-content/uploads/2019/10/yah_thessaloniki.jpg,,https://starbucks-mugs.com/mug/you-are-here-thessaloniki/,,,,
Crete,city,,mug,,Greece,GR,You Are Here,2015,35.2401,24.8093,https://starbucks-mugs.com/wp-content/uploads/2019/10/yah_crete.jpg,,https://starbucks-mugs.com/mug/you-are-here-crete/,,,,
Sharjah,city,,mug,,United Arab Emirates,AE,You Are Here,2015,25.3463,55.4209,https://starbucks-mugs.com/wp-content/uploads/2020/02/yah_sharjah.jpg,,https://starbucks-mugs.com/mug/you-are-here-sharjah/,,,,
Lyon,city,,mug,,France,FR,You Are Here,2015,45.764,4.8357,https://starbucks-mugs.com/wp-content/uploads/2020/02/yah_lyon_1.jpg,,https://starbucks-mugs.com/mug/you-are-here-lyon/,,,,
Jeddah,city,,mug,,Saudi Arabia,SA,You Are Here,2015,21.5433,39.1728,https://starbucks-mugs.com/wp-content/uploads/2019/08/yah_jeddah_main.jpg,,https://starbucks-mugs.com/mug/you-are-here-jeddah/,,,,
Bern,city,,mug,,Switzerland,CH,You Are Here,2015,46.948,7.4474,https://starbucks-mugs.com/wp-content/uploads/2020/01/yah_bern_1.jpg,,https://starbucks-mugs.com/mug/you-are-here-bern/,,,,
Basel,city,,mug,,Switzerland,CH,You Are Here,2015,47.5596,7.5886,https://starbucks-mugs.com/wp-content/uploads/2020/01/yah_basel_1.jpg,,https://starbucks-mugs.com/mug/you-are-here-basel/,,,,
Abu Dhabi,city,,mug,,United Arab Emirates,AE,You Are Here,2015,24.4539,54.3773,https://starbucks-mugs.com/wp-content/uploads/2020/02/yah_abu_dhabi_main.jpg,,https://starbucks-mugs.com/mug/you-are-here-abu-dhabi/,,,,
Kuwait National Day 2020,country,,mug,,,,You Are Here,2020,0,0,https://starbucks-mugs.com/wp-content/uploads/2020/02/yah_kuwait_national_day_2020.jpg,,https://starbucks-mugs.com/mug/you-are-here-kuwait-national-day-2020/,,,,
Schiphol,city,,mug,,Netherlands,NL,You Are Here,2015,52.3105,4.7683,https://starbucks-mugs.com/wp-content/uploads/2020/01/yah_schiphol_main.jpg,,https://starbucks-mugs.com/mug/you-are-here-schiphol/,,,,
Morocco,country,,mug,,Morocco,MA,You Are Here,2015,0,0,https://starbucks-mugs.com/wp-content/uploads/2020/01/yah_marocco_1_r.jpg,,https://starbucks-mugs.com/mug/you-are-here-morocco/,,,,
Rabat,city,,mug,,Morocco,MA,You Are Here,2015,34.0209,-6.8416,https://starbucks-mugs.com/wp-content/uploads/2020/01/yah_rabat_main.jpg,,https://starbucks-mugs.com/mug/you-are-here-rabat/,,,,
Rhodes,city,,mug,,Greece,GR,You Are Here,2015,36.4341,28.2176,https://starbucks-mugs.com/wp-content/uploads/2019/10/yah_rhodes_1.jpg,,https://starbucks-mugs.com/mug/you-are-here-rhodes/,,,,
Christmas Italy,country,,mug,,Italy,IT,You Are Here,2015,0,0,https://starbucks-mugs.com/wp-content/uploads/2019/12/yahc_italy_preview.jpg,,https://starbucks-mugs.com/mug/you-are-here-christmas-italy/,,,,
Nantong,city,,mug,,China,CN,You Are Here,2015,31.9816,120.8944,https://starbucks-mugs.com/wp-content/uploads/2019/12/yah_nantong.jpg,,https://starbucks-mugs.com/mug/you-are-here-nantong/,,,,
Sihanoukville,city,,mug,,Cambodia,KH,You Are Here,2015,10.6099,103.529,https://starbucks-mugs.com/wp-content/uploads/2019/11/yah_sihanoukville_1.jpg,,https://starbucks-mugs.com/mug/you-are-here-sihanoukville/,,,,
United Arab Emirates National Day 2019,country,,mug,,United Arab Emirates,AE,You Are Here,2019,0,0,https://starbucks-mugs.com/wp-content/uploads/2019/11/yah_uae_national_day_2019.jpg,,https://starbucks-mugs.com/mug/you-are-here-united-arab-emirates-national-day-2019/,,,,
Tokyo,city,,mug,,Japan,JP,You Are Here,2015,35.6762,139.6503,https://starbucks-mugs.com/wp-content/uploads/2019/11/yah_tokyo_preview.jpg,,https://starbucks-mugs.com/mug/you-are-here-tokyo/,,,,
Disney Hong Kong Disneyland,city,,mug,,China,CN,You Are Here,2015,22.313,114.0413,https://starbucks-mugs.com/wp-content/uploads/2019/10/yah_hong_kong_disneyland_main.jpg,,https://starbucks-mugs.com/mug/you-are-here-disney-hong-kong-disneyland/,,,,
Christmas Cebu 3,city,,mug,,Philippines,PH,You Are Here,2015,10.3157,123.8854,https://starbucks-mugs.com/wp-content/uploads/2019/10/yahc_cebu_3_1.jpg,,https://starbucks-mugs.com/mug/you-are-here-christmas-cebu-3/,,,Christmas Cebu,
Christmas Manila 3,city,,mug,,Philippines,PH,You Are Here,2015,14.5995,120.9842,https://starbucks-mugs.com/wp-content/uploads/2019/10/yahc_manila_3.jpg,,https://starbucks-mugs.com/mug/you-are-here-christmas-manila-3/,,,Christmas Manila,
Christmas Philippines 3,country,,mug,,Philippines,PH,You Are Here,2015,12.8797,121.774,https://starbucks-mugs.com/wp-content/uploads/2019/10/yahc_philippines_3.jpg,,https://starbucks-mugs.com/mug/you-are-here-christmas-philippines-3/,,,Christmas Philippines,
Belfast,city,,mug,,United Kingdom,GB,You Are Here,2015,54.5973,-5.9301,https://starbucks-mugs.com/wp-content/uploads/2019/10/yah_belfast_main.jpg,,https://starbucks-mugs.com/mug/you-are-here-belfast/,,,,
Christmas Poland,country,,mug,,Poland,PL,You Are Here,2015,0,0,https://starbucks-mugs.com/wp-content/uploads/2019/10/yahc_poland.jpg,,https://starbucks-mugs.com/mug/you-are-here-christmas-poland/,,,,
Mianyang,city,,mug,,China,CN,You Are Here,2015,31.4678,104.6796,https://starbucks-mugs.com/wp-content/uploads/2019/10/yah_mianyang_1.jpg,,https://starbucks-mugs.com/mug/you-are-here-mianyang/,,,,
Hengyang,city,,mug,,China,CN,You Are Here,2015,26.8938,112.5706,https://starbucks-mugs.com/wp-content/uploads/2019/08/yah_hengyang_1.jpg,,https://starbucks-mugs.com/mug/you-are-here-hengyang/,,,,
Luzhou,city,,mug,,China,CN,You Are Here,2015,28.8716,105.4418,https://starbucks-mugs.com/wp-content/uploads/2019/08/yah_luzhou_1.jpg,,https://starbucks-mugs.com/mug/you-are-here-luzhou/,,,,
Leshan,city,,mug,,China,CN,You Are Here,2015,29.5522,103.7665,https://starbucks-mugs.com/wp-content/uploads/2019/10/yah_leshan_1.jpg,,https://starbucks-mugs.com/mug/you-are-here-leshan/,,,,
Bengbu,city,,mug,,China,CN,You Are Here,2015,32.917,117.39,https://starbucks-mugs.com/wp-content/uploads/2019/10/yah_bengbu_1.jpg,,https://starbucks-mugs.com/mug/you-are-here-bengbu/,,,,
Zhuzhou,city,,mug,,China,CN,You Are Here,2015,27.8406,113.1519,https://starbucks-mugs.com/wp-content/uploads/2019/08/yah_zhuzhou_1.jpg,,https://starbucks-mugs.com/mug/you-are-here-zhuzhou/,,,,
Deyang,city,,mug,,China,CN,You Are Here,2015,31.127,104.3978,https://starbucks-mugs.com/wp-content/uploads/2019/08/yah_deyang_1.jpg,,https://starbucks-mugs.com/mug/you-are-here-deyang/,,,,
Xiangyang,city,,mug,,China,CN,You Are Here,2015,32.0096,112.1221,https://starbucks-mugs.com/wp-content/uploads/2019/08/yah_xiangyang_1.jpg,,https://starbucks-mugs.com/mug/you-are-here-xiangyang/,,,,
Kaifeng,city,,mug,,China,CN,You Are Here,2015,34.7978,114.3074,https://starbucks-mugs.com/wp-content/uploads/2019/08/yah_kaifeng_1.jpg,,https://starbucks-mugs.com/mug/you-are-here-kaifeng/,,,,
Andorra,country,,mug,,Andorra,AD,You Are Here,2015,42.5063,1.5218,https://starbucks-mugs.com/wp-content/uploads/2019/09/yah_andorra_1.jpg,,https://starbucks-mugs.com/mug/you-are-here-andorra/,,,,
Nice,city,,mug,,France,FR,You Are Here,2015,43.7102,7.262,https://starbucks-mugs.com/wp-content/uploads/2019/09/yah_nice_main.jpg,,https://starbucks-mugs.com/mug/you-are-here-nice/,,,,
Northern Ireland,city,,mug,,United Kingdom,GB,You Are Here,2015,54.7877,-6.4923,https://starbucks-mugs.com/wp-content/uploads/2019/09/yah_northern_ireland_main.jpg,,https://starbucks-mugs.com/mug/you-are-here-northern-ireland/,,,,
Changde,city,,mug,,China,CN,You Are Here,2015,29.0319,111.6985,https://starbucks-mugs.com/wp-content/uploads/2019/08/yah_changde_1.jpg,,https://starbucks-mugs.com/mug/you-are-here-changde/,,,,
Kingdom Of Saudi Arabia Saudi National Day,country,,mug,,Saudi Arabia,SA,You Are Here,2015,0,0,https://starbucks-mugs.com/wp-content/uploads/2019/08/yah_saudi_green.jpg,,https://starbucks-mugs.com/mug/you-are-here-kingdom-of-saudi-arabia-saudi-national-day/,,,,
Japan 5 Fall Edition,country,,mug,,Japan,JP,You Are Here,2015,0,0,https://starbucks-mugs.com/wp-content/uploads/2019/08/yah_japan_fall_main.jpg,,https://starbucks-mugs.com/mug/you-are-here-japan-5-fall-edition/,,,,
Ganzhou,city,,mug,,China,CN,You Are Here,2015,25.8312,114.9348,https://starbucks-mugs.com/wp-content/uploads/2019/08/yah_ganzhou_1_1.jpg,,https://starbucks-mugs.com/mug/you-are-here-ganzhou/,,,,
Christmas Egypt,country,,mug,,Egypt,EG,You Are Here,2015,0,0,https://starbucks-mugs.com/wp-content/uploads/2019/08/yahc_egypt.jpg,,https://starbucks-mugs.com/mug/you-are-here-christmas-egypt/,,,,
Christmas Istanbul 2,city,,mug,,Turkey,TR,You Are Here,2015,41.0082,28.9784,https://starbucks-mugs.com/wp-content/uploads/2019/08/yahc_istanbul2.jpg,,https://starbucks-mugs.com/mug/you-are-here-christmas-istanbul-2/,,,Christmas Istanbul,
Bucharest,city,,mug,,Romania,RO,You Are Here,2015,44.4268,26.1025,https://starbucks-mugs.com/wp-content/uploads/2019/08/yah_bucharest.jpg,,https://starbucks-mugs.com/mug/you-are-here-bucharest/,,,,
Valencia,city,,mug,,Spain,ES,You Are Here,2015,39.4699,-0.3763,https://starbucks-mugs.com/wp-content/uploads/2019/08/yah_valencia.jpg,,https://starbucks-mugs.com/mug/you-are-here-valencia/,,,,
Oktoberfest,city,,mug,,Germany,DE,You Are Here,2015,48.1351,11.582,https://starbucks-mugs.com/wp-content/uploads/2019/08/yah_oktoberfest_v1_main.jpg,,https://starbucks-mugs.com/mug/you-are-here-oktoberfest/,,,,
Jinghong,city,,mug,,China,CN,You Are Here,2015,22.0085,100.7975,https://starbucks-mugs.com/wp-content/uploads/2019/08/yah_jinghong_1_1.jpg,,https://starbucks-mugs.com/mug/you-are-here-jinghong/,,,,
Warsaw,city,,mug,,Poland,PL,You Are Here,2015,52.2297,21.0122,https://starbucks-mugs.com/wp-content/uploads/2019/08/yah_warsaw_main-1.jpg,,https://starbucks-mugs.com/mug/you-are-here-warsaw/,,,,
Bremen,city,,mug,,Germany,DE,You Are Here,2015,53.0793,8.8017,https://starbucks-mugs.com/wp-content/uploads/2019/07/yah_bremen_1_1.jpg,,https://starbucks-mugs.com/mug/you-are-here-bremen/,,,,
Canary Islands,city,,mug,,Spain,ES,You Are Here,2015,28.2916,-15.4341,https://starbucks-mugs.com/wp-content/uploads/2019/06/yah_canary_islands.jpg,,https://starbucks-mugs.com/mug/you-are-here-canary-islands/,,,,
Sevilla,city,,mug,,Spain,ES,You Are Here,2015,37.3891,-5.9845,https://starbucks-mugs.com/wp-content/uploads/2019/06/yah_sevilla_1_1.jpg,,https://starbucks-mugs.com/mug/you-are-here-sevilla/,,,,
Marbella,city,,mug,,Spain,ES,You Are Here,2015,36.5101,-4.8825,https://starbucks-mugs.com/wp-content/uploads/2019/06/yah_marbella.jpg,,https://starbucks-mugs.com/mug/you-are-here-marbella/,,,,
Bilbao,city,,mug,,Spain,ES,You Are Here,2015,43.263,-2.935,https://starbucks-mugs.com/wp-content/uploads/2019/06/yah_bilbao.jpg,,https://starbucks-mugs.com/mug/you-are-here-bilbao/,,,,
Balearic Islands,city,,mug,,Spain,ES,You Are Here,2015,39.5296,2.6544,https://starbucks-mugs.com/wp-content/uploads/2019/06/yah_balearic_islands.jpg,,https://starbucks-mugs.com/mug/you-are-here-balearic-islands/,,,,
Lille,city,,mug,,France,FR,You Are Here,2015,50.6292,3.0573,https://starbucks-mugs.com/wp-content/uploads/2019/06/yah_lille.jpg,,https://starbucks-mugs.com/mug/you-are-here-lille/,,,,
Japan 4 Summer Collection,country,,mug,,Japan,JP,You Are Here,2015,0,0,https://starbucks-mugs.com/wp-content/uploads/2019/08/yah_japan_summer_main.jpg,,https://starbucks-mugs.com/mug/you-are-here-japan-4-summer-collection/,,,,
Bergen,city,,mug,,Norway,NO,You Are Here,2015,60.3913,5.3221,https://starbucks-mugs.com/wp-content/uploads/2019/06/yah_bergen_another.jpg,,https://starbucks-mugs.com/mug/you-are-here-bergen/,,,,
Bordeaux,city,,mug,,France,FR,You Are Here,2015,44.8378,-0.5792,https://starbucks-mugs.com/wp-content/uploads/2019/06/yah_bordeaux.jpg,,https://starbucks-mugs.com/mug/you-are-here-bordeaux/,,,,
Dublin,city,,mug,,Ireland,IE,You Are Here,2015,53.3498,-6.2603,https://starbucks-mugs.com/wp-content/uploads/2019/05/yah_dublin.jpg,,https://starbucks-mugs.com/mug/you-are-here-dublin/,,,,
Ireland,country,,mug,,Ireland,IE,You Are Here,2015,0,0,https://starbucks-mugs.com/wp-content/uploads/2019/06/yah_ireland_main.jpg,,https://starbucks-mugs.com/mug/you-are-here-ireland/,,,,
Malta,country,,mug,,Malta,MT,You Are Here,2015,0,0,https://starbucks-mugs.com/wp-content/uploads/2019/05/yah_malta_1_1_407.jpg,,https://starbucks-mugs.com/mug/you-are-here-malta/,,,,
Monaco,country,,mug,,Monaco,MC,You Are Here,2015,43.7384,7.4246,https://starbucks-mugs.com/wp-content/uploads/2019/05/yah_monaco_1_1.jpg,,https://starbucks-mugs.com/mug/you-are-here-monaco/,,,,
Brugge,city,,mug,,Belgium,BE,You Are Here,2015,51.2093,3.2247,https://starbucks-mugs.com/wp-content/uploads/2019/04/yah_brugge_main.jpg,,https://starbucks-mugs.com/mug/you-are-here-brugge/,,,,
Ba Na Hills,city,,mug,,Vietnam,VN,You Are Here,2015,15.9993,107.9883,https://starbucks-mugs.com/wp-content/uploads/2019/04/yah_banahills.jpg,,https://starbucks-mugs.com/mug/you-are-here-ba-na-hills/,,,,
Qujing,city,,mug,,China,CN,You Are Here,2015,25.4847,103.7976,https://starbucks-mugs.com/wp-content/uploads/2019/04/yah_qujing.jpg,,https://starbucks-mugs.com/mug/you-are-here-qujing/,,,,
Serbia,country,,mug,,Serbia,RS,You Are Here,2015,0,0,https://starbucks-mugs.com/wp-content/uploads/2019/04/yah_serbia.jpg,,https://starbucks-mugs.com/mug/you-are-here-serbia/,,,,
Phuket,city,,mug,,Thailand,TH,You Are Here,2015,7.8804,98.3923,https://starbucks-mugs.com/wp-content/uploads/2019/03/yah_phuket_1_1.jpg,,https://starbucks-mugs.com/mug/you-are-here-phuket/,,,,
Pattaya,city,,mug,,Thailand,TH,You Are Here,2015,12.9236,100.8825,https://starbucks-mugs.com/wp-content/uploads/2019/03/yah_pattaya_1_1.jpg,,https://starbucks-mugs.com/mug/you-are-here-pattaya/,,,,
Japan 3 Spring Edition,country,,mug,,Japan,JP,You Are Here,2015,0,0,https://starbucks-mugs.com/wp-content/uploads/2019/03/yah_japan_3.jpg,,https://starbucks-mugs.com/mug/you-are-here-japan-3-spring-edition/,,,,
Slovakia,country,,mug,,Slovakia,SK,You Are Here,2015,0,0,https://starbucks-mugs.com/wp-content/uploads/2019/03/yah_slovakia.jpg,,https://starbucks-mugs.com/mug/you-are-here-slovakia/,,,,
Hungary,country,,mug,,Hungary,HU,You Are Here,2015,0,0,https://starbucks-mugs.com/wp-content/uploads/2019/03/yah_hungary.jpg,,https://starbucks-mugs.com/mug/you-are-here-hungary/,,,,
South Africa,country,,mug,,South Africa,ZA,You Are Here,2015,0,0,https://starbucks-mugs.com/wp-content/uploads/2019/02/yah_south_africa_main.jpg,,https://starbucks-mugs.com/mug/you-are-here-south-africa/,,,,
Zunyi,city,,mug,,China,CN,You Are Here,2015,27.7059,106.9279,https://starbucks-mugs.com/wp-content/uploads/2019/01/yah_zunyi.jpg,,https://starbucks-mugs.com/mug/you-are-here-zunyi/,,,,
Turkey,country,,mug,,Turkey,TR,You Are Here,2015,0,0,https://starbucks-mugs.com/wp-content/uploads/2018/12/yah_turkey.jpg,,https://starbucks-mugs.com/mug/you-are-here-turkey/,,,,
Romania,country,,mug,,Romania,RO,You Are Here,2015,0,0,https://starbucks-mugs.com/wp-content/uploads/2018/12/yah_romania.jpg,,https://starbucks-mugs.com/mug/you-are-here-romania/,,,,
Christmas Romania,country,,mug,,Romania,RO,You Are Here,2015,0,0,https://starbucks-mugs.com/wp-content/uploads/2018/12/yahc_romania.jpg,,https://starbucks-mugs.com/mug/you-are-here-christmas-romania/,,,,
Limassol,city,,mug,,Cyprus,CY,You Are Here,2015,34.6786,33.0413,https://starbucks-mugs.com/wp-content/uploads/2018/12/yah_limassol.jpg,,https://starbucks-mugs.com/mug/you-are-here-limassol/,,,,
Milan,city,,mug,,Italy,IT,You Are Here,2015,45.4642,9.19,https://starbucks-mugs.com/wp-content/uploads/2018/11/yah_milan_main.jpg,,https://starbucks-mugs.com/mug/you-are-here-milan/,,,,
Italy,country,,mug,,Italy,IT,You Are Here,2015,0,0,https://starbucks-mugs.com/wp-content/uploads/2018/11/yah_italy_main.jpg,,https://starbucks-mugs.com/mug/you-are-here-italy/,,,,
Japan 2 Winter Edition,country,,mug,,Japan,JP,You Are Here,2015,0,0,https://starbucks-mugs.com/wp-content/uploads/2018/11/yah_japan_2.jpg,,https://starbucks-mugs.com/mug/you-are-here-japan-2-winter-edition/,,,,
Corfu,city,,mug,,Greece,GR,You Are Here,2015,39.6243,19.9217,https://starbucks-mugs.com/wp-content/uploads/2018/11/yah_corfu.jpg,,https://starbucks-mugs.com/mug/you-are-here-corfu/,,,,
Christmas Cebu 2,city,,mug,,Philippines,PH,You Are Here,2015,10.3157,123.8854,https://starbucks-mugs.com/wp-content/uploads/2018/11/yahc_cebu_2_1.jpg,,https://starbucks-mugs.com/mug/you-are-here-christmas-cebu-2/,,,Christmas Cebu,
Langkawi,city,,mug,,Malaysia,MY,You Are Here,2015,6.35,99.8,https://starbucks-mugs.com/wp-content/uploads/2018/11/yah_langkawi.jpg,,https://starbucks-mugs.com/mug/you-are-here-langkawi/,,,,
Christmas Portugal,country,,mug,,Portugal,PT,You Are Here,2015,0,0,https://starbucks-mugs.com/wp-content/uploads/2018/11/yahc_portugal.jpg,,https://starbucks-mugs.com/mug/you-are-here-christmas-portugal/,,,,
Christmas Spain,country,,mug,,Spain,ES,You Are Here,2015,0,0,https://starbucks-mugs.com/wp-content/uploads/2018/11/yahc_spain.jpg,,https://starbucks-mugs.com/mug/you-are-here-christmas-spain/,,,,
Christmas Czech Republic,country,,mug,,Czech Republic,CZ,You Are Here,2015,0,0,https://starbucks-mugs.com/wp-content/uploads/2018/11/yahc_czech_republic.jpg,,https://starbucks-mugs.com/mug/you-are-here-christmas-czech-republic/,,,,
Christmas Hungary,country,,mug,,Hungary,HU,You Are Here,2015,0,0,https://starbucks-mugs.com/wp-content/uploads/2018/11/yahc_hungary.jpg,,https://starbucks-mugs.com/mug/you-are-here-christmas-hungary/,,,,
Christmas Lebanon,country,,mug,,Lebanon,LB,You Are Here,2015,0,0,https://starbucks-mugs.com/wp-content/uploads/2018/11/yahc_lebanon.jpg,,https://starbucks-mugs.com/mug/you-are-here-christmas-lebanon/,,,,
Christmas Netherlands,country,,mug,,Netherlands,NL,You Are Here,2015,0,0,https://starbucks-mugs.com/wp-content/uploads/2018/11/yahc_netherlands.jpg,,https://starbucks-mugs.com/mug/you-are-here-christmas-netherlands/,,,,
Christmas Germany,country,,mug,,Germany,DE,You Are Here,2015,0,0,https://starbucks-mugs.com/wp-content/uploads/2018/11/yahc_germany.jpg,,https://starbucks-mugs.com/mug/you-are-here-christmas-germany/,,,,
Christmas Austria,country,,mug,,Austria,AT,You Are Here,2015,0,0,https://starbucks-mugs.com/wp-content/uploads/2018/11/yahc_austria.jpg,,https://starbucks-mugs.com/mug/you-are-here-christmas-austria/,,,,
Christmas England,city,,mug,,United Kingdom,GB,You Are Here,2015,52.3555,-1.1743,https://starbucks-mugs.com/wp-content/uploads/2018/11/yahc_england.jpg,,https://starbucks-mugs.com/mug/you-are-here-christmas-england/,,,,
Christmas Belgium,country,,mug,,Belgium,BE,You Are Here,2015,0,0,https://starbucks-mugs.com/wp-content/uploads/2018/11/yahc_belgium.jpg,,https://starbucks-mugs.com/mug/you-are-here-christmas-belgium/,,,,
Christmas Scotland,city,,mug,,United Kingdom,GB,You Are Here,2015,56.4907,-4.2026,https://starbucks-mugs.com/wp-content/uploads/2018/11/yahc_scotland.jpg,,https://starbucks-mugs.com/mug/you-are-here-christmas-scotland/,,,,
Christmas Greece,country,,mug,,Greece,GR,You Are Here,2015,0,0,https://starbucks-mugs.com/wp-content/uploads/2018/11/yahc_greece_.jpg,,https://starbucks-mugs.com/mug/you-are-here-christmas-greece/,,,,
Christmas United Arab Emirates,country,,mug,,United Arab Emirates,AE,You Are Here,2015,0,0,https://starbucks-mugs.com/wp-content/uploads/2018/10/yahc_uae.jpg,,https://starbucks-mugs.com/mug/you-are-here-christmas-united-arab-emirates/,,,,
Christmas Manila 2,city,,mug,,Philippines,PH,You Are Here,2015,14.5995,120.9842,https://starbucks-mugs.com/wp-content/uploads/2018/10/yahc_manila_2_1.jpg,,https://starbucks-mugs.com/mug/you-are-here-christmas-manila-2/,,,Christmas Manila,
Christmas Philippines 2,country,,mug,,Philippines,PH,You Are Here,2015,12.8797,121.774,https://starbucks-mugs.com/wp-content/uploads/2018/10/yahc_philippines_2.jpg,,https://starbucks-mugs.com/mug/you-are-here-christmas-philippines-2/,,,Christmas Philippines,
Christmas Norway,country,,mug,,Norway,NO,You Are Here,2015,0,0,https://starbucks-mugs.com/wp-content/uploads/2018/10/yahc_norway.jpg,,https://starbucks-mugs.com/mug/you-are-here-christmas-norway/,,,,
Christmas Russia,country,,mug,,Russia,RU,You Are Here,2015,0,0,https://starbucks-mugs.com/wp-content/uploads/2018/10/btc_russia.jpg,,https://starbucks-mugs.com/mug/you-are-here-christmas-russia/,,,,
Sweden,country,,mug,,Sweden,SE,You Are Here,2015,0,0,https://starbucks-mugs.com/wp-content/uploads/2018/10/yah_sweden_1_407.jpg,,https://starbucks-mugs.com/mug/you-are-here-sweden/,,,,
Bulgaria,country,,mug,,Bulgaria,BG,You Are Here,2015,0,0,https://starbucks-mugs.com/wp-content/uploads/2018/10/yah_bulgaria.jpg,,https://starbucks-mugs.com/mug/you-are-here-bulgaria/,,,,
Yibin,city,,mug,,China,CN,You Are Here,2015,28.7521,104.6424,https://starbucks-mugs.com/wp-content/uploads/2018/10/yah_yibin.jpg,,https://starbucks-mugs.com/mug/you-are-here-yibin/,,,,
Quanzhou,city,,mug,,China,CN,You Are Here,2015,24.8741,118.6757,https://starbucks-mugs.com/wp-content/uploads/2018/10/yah_quanzhou_main.jpg,,https://starbucks-mugs.com/mug/you-are-here-quanzhou/,,,,
Liuzhou,city,,mug,,China,CN,You Are Here,2015,24.3264,109.4281,https://starbucks-mugs.com/wp-content/uploads/2018/10/yah_liuzhou_main.jpg,,https://starbucks-mugs.com/mug/you-are-here-liuzhou/,,,,
Zhongshan,city,,mug,,China,CN,You Are Here,2015,22.5176,113.3926,https://starbucks-mugs.com/wp-content/uploads/2018/10/yah_zhongshan_main.jpg,,https://starbucks-mugs.com/mug/you-are-here-zhongshan/,,,,
Huizhou,city,,mug,,China,CN,You Are Here,2015,23.1116,114.4152,https://starbucks-mugs.com/wp-content/uploads/2018/10/yah_huizhou_main.jpg,,https://starbucks-mugs.com/mug/you-are-here-huizhou/,,,,
Haikou,city,,mug,,China,CN,You Are Here,2015,20.0444,110.3419,https://starbucks-mugs.com/wp-content/uploads/2018/10/yah_haikou_main.jpg,,https://starbucks-mugs.com/mug/you-are-here-haikou/,,,,
Maanshan,city,,mug,,China,CN,You Are Here,2015,31.6669,118.5069,https://starbucks-mugs.com/wp-content/uploads/2018/10/yah_maanshan.jpg,,https://starbucks-mugs.com/mug/you-are-here-maanshan/,,,,
Qinhuangdao,city,,mug,,China,CN,You Are Here,2015,39.9354,119.5999,https://starbucks-mugs.com/wp-content/uploads/2018/10/yah_qinhuangdao_main.jpg,,https://starbucks-mugs.com/mug/you-are-here-qinhuangdao/,,,,
Jiujiang,city,,mug,,China,CN,You Are Here,2015,29.705,116.001,https://starbucks-mugs.com/wp-content/uploads/2018/10/yah_jiujiang.jpg,,https://starbucks-mugs.com/mug/you-are-here-jiujiang/,,,,
Taian,city,,mug,,China,CN,You Are Here,2015,36.1963,117.0874,https://starbucks-mugs.com/wp-content/uploads/2018/10/yah_taian.jpg,,https://starbucks-mugs.com/mug/you-are-here-taian/,,,,
Yantai,city,,mug,,China,CN,You Are Here,2015,37.5336,121.3914,https://starbucks-mugs.com/wp-content/uploads/2018/10/yah_yantai.jpg,,https://starbucks-mugs.com/mug/you-are-here-yantai/,,,,
Datong,city,,mug,,China,CN,You Are Here,2015,40.09,113.291,https://starbucks-mugs.com/wp-content/uploads/2018/10/yah_datong.jpg,,https://starbucks-mugs.com/mug/you-are-here-datong/,,,,
Jilin,city,,mug,,China,CN,You Are Here,2015,43.8376,126.5501,https://starbucks-mugs.com/wp-content/uploads/2018/10/yah_jilin.jpg,,https://starbucks-mugs.com/mug/you-are-here-jilin/,,,,
Lanzhou,city,,mug,,China,CN,You Are Here,2015,36.0611,103.8343,https://starbucks-mugs.com/wp-content/uploads/2018/10/yah_lanzhou.jpg,,https://starbucks-mugs.com/mug/you-are-here-lanzhou/,,,,
Luoyang,city,,mug,,China,CN,You Are Here,2015,34.6197,112.4539,https://starbucks-mugs.com/wp-content/uploads/2018/10/yah_luoyang.jpg,,https://starbucks-mugs.com/mug/you-are-here-luoyang/,,,,
Nanchong,city,,mug,,China,CN,You Are Here,2015,30.7991,106.0784,https://starbucks-mugs.com/wp-content/uploads/2018/10/yah_nanchong.jpg,,https://starbucks-mugs.com/mug/you-are-here-nanchong/,,,,
Wuhu,city,,mug,,China,CN,You Are Here,2015,31.3526,118.4328,https://starbucks-mugs.com/wp-content/uploads/2018/10/yah_wuhu-1.jpg,,https://starbucks-mugs.com/mug/you-are-here-wuhu/,,,,
Xining,city,,mug,,China,CN,You Are Here,2015,36.6171,101.7782,https://starbucks-mugs.com/wp-content/uploads/2018/10/yah_xining.jpg,,https://starbucks-mugs.com/mug/you-are-here-xining/,,,,
Yichang,city,,mug,,China,CN,You Are Here,2015,30.692,111.2861,https://starbucks-mugs.com/wp-content/uploads/2018/10/yah_yichang_main.jpg,,https://starbucks-mugs.com/mug/you-are-here-yichang/,,,,
Yinchuan,city,,mug,,China,CN,You Are Here,2015,38.4743,106.2586,https://starbucks-mugs.com/wp-content/uploads/2018/10/yah_yinchuan.jpg,,https://starbucks-mugs.com/mug/you-are-here-yinchuan/,,,,
Baotou,city,,mug,,China,CN,You Are Here,2015,40.6572,109.8403,https://starbucks-mugs.com/wp-content/uploads/2018/12/yah_baotou.jpg,,https://starbucks-mugs.com/mug/you-are-here-baotou/,,,,
Christmas Switzerland,country,,mug,,Switzerland,CH,You Are Here,2015,0,0,https://starbucks-mugs.com/wp-content/uploads/2018/10/yahc_switzerland_main.jpg,,https://starbucks-mugs.com/mug/you-are-here-christmas-switzerland/,,,,
Christmas France,country,,mug,,France,FR,You Are Here,2015,0,0,https://starbucks-mugs.com/wp-content/uploads/2018/10/yahc_france.jpg,,https://starbucks-mugs.com/mug/you-are-here-christmas-france/,,,,
Portugal,country,,mug,,Portugal,PT,You Are Here,2015,0,0,https://starbucks-mugs.com/wp-content/uploads/2018/10/yah_portugal_main.jpg,,https://starbucks-mugs.com/mug/you-are-here-portugal/,,,,
Genting Highlands,city,,mug,,Malaysia,MY,You Are Here,2015,3.4268,101.7933,https://starbucks-mugs.com/wp-content/uploads/2018/10/yah_genting_highlands.jpg,,https://starbucks-mugs.com/mug/you-are-here-genting-highlands/,,,,
Jordan,country,,mug,,Jordan,JO,You Are Here,2015,0,0,https://starbucks-mugs.com/wp-content/uploads/2018/09/yah_jordan.jpg,,https://starbucks-mugs.com/mug/you-are-here-jordan/,,,,
Belgium,country,,mug,,Belgium,BE,You Are Here,2015,0,0,https://starbucks-mugs.com/wp-content/uploads/2018/09/yah_belgium.jpg,,https://starbucks-mugs.com/mug/you-are-here-belgium/,,,,
Ras Al Khaimah,city,,mug,,United Arab Emirates,AE,You Are Here,2015,25.7895,55.9432,https://starbucks-mugs.com/wp-content/uploads/2018/09/yah_ras_al_khaimah.jpg,,https://starbucks-mugs.com/mug/you-are-here-ras-al-khaimah/,,,,
United Arab Emirates,country,,mug,,United Arab Emirates,AE,You Are Here,2015,0,0,https://starbucks-mugs.com/wp-content/uploads/2018/09/yah_uae_1.jpg,,https://starbucks-mugs.com/mug/you-are-here-united-arab-emirates/,,,,
Denmark,country,,mug,,Denmark,DK,You Are Here,2015,0,0,https://starbucks-mugs.com/wp-content/uploads/2018/09/yah_denmark-1.jpg,,https://starbucks-mugs.com/mug/you-are-here-denmark/,,,,
Qatar,country,,mug,,Qatar,QA,You Are Here,2015,0,0,https://starbucks-mugs.com/wp-content/uploads/2018/09/yah_qatar_1.jpg,,https://starbucks-mugs.com/mug/you-are-here-qatar/,,,,
Cambodia,country,,mug,,Cambodia,KH,You Are Here,2015,0,0,https://starbucks-mugs.com/wp-content/uploads/2018/08/yah_cambodia.jpg,,https://starbucks-mugs.com/mug/you-are-here-cambodia/,,,,
Kingdom Of Saudi Arabia,country,,mug,,Saudi Arabia,SA,You Are Here,2015,0,0,https://starbucks-mugs.com/wp-content/uploads/2018/08/yah_ksa.jpg,,https://starbucks-mugs.com/mug/you-are-here-kingdom-of-saudi-arabia/,,,,
Oman,country,,mug,,Oman,OM,You Are Here,2015,0,0,https://starbucks-mugs.com/wp-content/uploads/2018/08/yah_oman_main.jpg,,https://starbucks-mugs.com/mug/you-are-here-oman/,,,,
Russia,country,,mug,,Russia,RU,You Are Here,2015,0,0,https://starbucks-mugs.com/wp-content/uploads/2018/08/yah_russia-1.jpg,,https://starbucks-mugs.com/mug/you-are-here-russia/,,,,
Bahrain,country,,mug,,Bahrain,BH,You Are Here,2015,0,0,https://starbucks-mugs.com/wp-content/uploads/2018/08/yah_bahrain_main.jpg,,https://starbucks-mugs.com/mug/you-are-here-bahrain/,,,,
Lebanon,country,,mug,,Lebanon,LB,You Are Here,2015,0,0,https://starbucks-mugs.com/wp-content/uploads/2018/08/yah_lebanon.jpg,,https://starbucks-mugs.com/mug/you-are-here-lebanon/,,,,
Finland,country,,mug,,Finland,FI,You Are Here,2015,0,0,https://starbucks-mugs.com/wp-content/uploads/2018/08/yah_finland.jpg,,https://starbucks-mugs.com/mug/you-are-here-finland/,,,,
Puer,city,,mug,,China,CN,You Are Here,2015,22.825,100.9667,https://starbucks-mugs.com/wp-content/uploads/2018/08/yah_puer.jpg,,https://starbucks-mugs.com/mug/you-are-here-puer/,,,,
Guiyang,city,,mug,,China,CN,You Are Here,2015,26.5983,106.7074,https://starbucks-mugs.com/wp-content/uploads/2018/06/yah_guiyang.jpg,,https://starbucks-mugs.com/mug/you-are-here-guiyang/,,,,
Zhengzhou,city,,mug,,China,CN,You Are Here,2015,34.7466,113.6254,https://starbucks-mugs.com/wp-content/uploads/2018/06/yah_zhengzhou.jpg,,https://starbucks-mugs.com/mug/you-are-here-zhengzhou/,,,,
Czech Republic,country,,mug,,Czech Republic,CZ,You Are Here,2015,0,0,https://starbucks-mugs.com/wp-content/uploads/2018/07/yah_czech_republic.jpg,,https://starbucks-mugs.com/mug/you-are-here-czech-republic/,,,,
Poland,country,,mug,,Poland,PL,You Are Here,2015,0,0,https://starbucks-mugs.com/wp-content/uploads/2018/07/yah_poland_1.jpg,,https://starbucks-mugs.com/mug/you-are-here-poland/,,,,
Disney Disneyland 4 New Orleans Square,city,,mug,,United States,US,You Are Here,2015,33.8121,-117.919,https://starbucks-mugs.com/wp-content/uploads/2018/06/yah_disneyland_4_new_orleans_2.jpg,,https://starbucks-mugs.com/mug/you-are-here-disney-disneyland-4-new-orleans-square/,,,,
Taiyuan,city,,mug,,China,CN,You Are Here,2015,37.8706,112.5489,https://starbucks-mugs.com/wp-content/uploads/2018/06/yah_taiyuan.jpg,,https://starbucks-mugs.com/mug/you-are-here-taiyuan/,,,,
Nanchang,city,,mug,,China,CN,You Are Here,2015,28.682,115.8579,https://starbucks-mugs.com/wp-content/uploads/2018/06/yah_nanchang.jpg,,https://starbucks-mugs.com/mug/you-are-here-nanchang/,,,,
Lijiang,city,,mug,,China,CN,You Are Here,2015,26.8721,100.226,https://starbucks-mugs.com/wp-content/uploads/2018/06/yah_lijiang.jpg,,https://starbucks-mugs.com/mug/you-are-here-lijiang/,,,,
Yueyang,city,,mug,,China,CN,You Are Here,2015,29.357,113.1291,https://starbucks-mugs.com/wp-content/uploads/2018/06/yah_yueyang.jpg,,https://starbucks-mugs.com/mug/you-are-here-yueyang/,,,,
Hefei,city,,mug,,China,CN,You Are Here,2015,31.8639,117.2808,https://starbucks-mugs.com/wp-content/uploads/2018/06/yah_hefei.jpg,,https://starbucks-mugs.com/mug/you-are-here-hefei/,,,,
Dali,city,,mug,,China,CN,You Are Here,2015,25.6065,100.2679,https://starbucks-mugs.com/wp-content/uploads/2018/06/yah_dali.jpg,,https://starbucks-mugs.com/mug/you-are-here-dali/,,,,
Hohhot,city,,mug,,China,CN,You Are Here,2015,40.8426,111.749,https://starbucks-mugs.com/wp-content/uploads/2018/06/yah_hohhot.jpg,,https://starbucks-mugs.com/mug/you-are-here-hohhot/,,,,
Cyprus,country,,mug,,Cyprus,CY,You Are Here,2015,0,0,https://starbucks-mugs.com/wp-content/uploads/2018/06/yah_cyprus_main.jpg,,https://starbucks-mugs.com/mug/you-are-here-cyprus/,,,,
Krakow,city,,mug,,Poland,PL,You Are Here,2015,50.0647,19.945,https://starbucks-mugs.com/wp-content/uploads/2018/06/yah_krakow_1_1_407.jpg,,https://starbucks-mugs.com/mug/you-are-here-krakow/,,,,
Foshan,city,,mug,,China,CN,You Are Here,2015,23.022,113.1216,https://starbucks-mugs.com/wp-content/uploads/2018/06/yah_foshan.jpg,,https://starbucks-mugs.com/mug/you-are-here-foshan/,,,,
Disney Parc Walt Disney Studios,city,,mug,,France,FR,You Are Here,2015,48.8682,2.7832,https://starbucks-mugs.com/wp-content/uploads/2018/06/yah_parc_walt_disney_studios_front.jpg,,https://starbucks-mugs.com/mug/you-are-here-disney-parc-walt-disney-studios/,,,,
Disney Disneyland Paris,city,,mug,,United States,US,You Are Here,2015,33.8121,-117.919,https://starbucks-mugs.com/wp-content/uploads/2018/06/yah_disneyland_paris_front.jpg,,https://starbucks-mugs.com/mug/you-are-here-disney-disneyland-paris/,,,,
Guilin,city,,mug,,China,CN,You Are Here,2015,25.2736,110.29,https://starbucks-mugs.com/wp-content/uploads/2018/06/yah_guilin.jpg,,https://starbucks-mugs.com/mug/you-are-here-guilin/,,,,
Zhuhai,city,,mug,,China,CN,You Are Here,2015,22.271,113.5767,https://starbucks-mugs.com/wp-content/uploads/2018/06/yah_zhuhai.jpg,,https://starbucks-mugs.com/mug/you-are-here-zhuhai/,,,,
Dongguan,city,,mug,,China,CN,You Are Here,2015,23.0489,113.7447,https://starbucks-mugs.com/wp-content/uploads/2018/06/yah_dongguan_main.jpg,,https://starbucks-mugs.com/mug/you-are-here-dongguan/,,,,
Christmas China,country,,mug,,China,CN,You Are Here,2015,0,0,https://starbucks-mugs.com/wp-content/uploads/2018/06/yah_christmas_china_1_1.jpg,,https://starbucks-mugs.com/mug/you-are-here-christmas-china/,,,,
Fuzhou,city,,mug,,China,CN,You Are Here,2015,26.0745,119.2965,https://starbucks-mugs.com/wp-content/uploads/2018/06/yah_fuzhou.jpg,,https://starbucks-mugs.com/mug/you-are-here-fuzhou/,,,,
Changchun,city,,mug,,China,CN,You Are Here,2015,43.8171,125.3235,https://starbucks-mugs.com/wp-content/uploads/2018/06/yah_changchun.jpg,,https://starbucks-mugs.com/mug/you-are-here-changchun/,,,,
Shijiazhuang,city,,mug,,China,CN,You Are Here,2015,38.0428,114.5149,https://starbucks-mugs.com/wp-content/uploads/2018/06/yah_shijiazhuang.jpg,,https://starbucks-mugs.com/mug/you-are-here-shijiazhuang/,,,,
Tianjin,city,,mug,,China,CN,You Are Here,2015,39.3434,117.3616,https://starbucks-mugs.com/wp-content/uploads/2018/06/yah_tianjin.jpg,,https://starbucks-mugs.com/mug/you-are-here-tianjin/,,,,
Wales,city,,mug,,United Kingdom,GB,You Are Here,2015,52.1307,-3.7837,https://starbucks-mugs.com/wp-content/uploads/2018/06/yah_wales_main.jpg,,https://starbucks-mugs.com/mug/you-are-here-wales/,,,,
Spain,country,,mug,,Spain,ES,You Are Here,2015,0,0,https://starbucks-mugs.com/wp-content/uploads/2018/05/yah_spain.jpg,,https://starbucks-mugs.com/mug/you-are-here-spain/,,,,
Scotland,city,,mug,,United Kingdom,GB,You Are Here,2015,56.4907,-4.2026,https://starbucks-mugs.com/wp-content/uploads/2018/05/yah_scotland.jpg,,https://starbucks-mugs.com/mug/you-are-here-scotland/,,,,
Norway,country,,mug,,Norway,NO,You Are Here,2015,0,0,https://starbucks-mugs.com/wp-content/uploads/2018/05/yah_norway-1.jpg,,https://starbucks-mugs.com/mug/you-are-here-norway/,,,,
Disney Magic Kingdom 3 Tomorrowland,city,,mug,,United States,US,You Are Here,2015,28.4177,-81.5812,https://starbucks-mugs.com/wp-content/uploads/2018/05/yah_disney_magic_kingdom_3_tomorrowland_main.jpg,,https://starbucks-mugs.com/mug/you-are-here-disney-magic-kingdom-3-tomorrowland/,,,,
Disneyland 3 Adventureland,city,,mug,,United States,US,You Are Here,2015,33.8121,-117.919,https://starbucks-mugs.com/wp-content/uploads/2018/04/yah_disneyland_v3_adventureland.jpg,,https://starbucks-mugs.com/mug/you-are-here-disneyland-3-adventureland/,,,,
Hai Phong,city,,mug,,Vietnam,VN,You Are Here,2015,20.8449,106.6881,https://starbucks-mugs.com/wp-content/uploads/2018/03/yah_hai_phong.jpg,,https://starbucks-mugs.com/mug/you-are-here-hai-phong/,,,,
Greece,country,,mug,,Greece,GR,You Are Here,2015,0,0,https://starbucks-mugs.com/wp-content/uploads/2018/03/yah_greece-1.jpg,,https://starbucks-mugs.com/mug/you-are-here-greece/,,,,
Heidelberg,city,,mug,,Germany,DE,You Are Here,2015,49.3988,8.6724,https://starbucks-mugs.com/wp-content/uploads/2018/03/yah_heidelberg.jpg,,https://starbucks-mugs.com/mug/you-are-here-heidelberg/,,,,
Germany,country,,mug,,Germany,DE,You Are Here,2015,0,0,https://starbucks-mugs.com/wp-content/uploads/2018/02/yah_germany-1.jpg,,https://starbucks-mugs.com/mug/you-are-here-germany/,,,,
Helsinki,city,,mug,,Finland,FI,You Are Here,2015,60.1699,24.9384,https://starbucks-mugs.com/wp-content/uploads/2018/02/yah_helsinki_main.jpg,,https://starbucks-mugs.com/mug/you-are-here-helsinki/,,,,
Geneva,city,,mug,,Switzerland,CH,You Are Here,2015,46.2044,6.1432,https://starbucks-mugs.com/wp-content/uploads/2018/02/yah_geneva.jpg,,https://starbucks-mugs.com/mug/you-are-here-geneva/,,,,
Da Nang,city,,mug,,Vietnam,VN,You Are Here,2015,16.0544,108.2022,https://starbucks-mugs.com/wp-content/uploads/2018/02/yah_danang.jpg,,https://starbucks-mugs.com/mug/you-are-here-da-nang/,,,,
Leipzig,city,,mug,,Germany,DE,You Are Here,2015,51.3397,12.3731,https://starbucks-mugs.com/wp-content/uploads/2018/01/yah_leipzig.jpg,,https://starbucks-mugs.com/mug/you-are-here-leipzig/,,,,
Budapest 2,city,,mug,,Hungary,HU,You Are Here,2015,47.4979,19.0402,https://starbucks-mugs.com/wp-content/uploads/2018/01/yah_budapest_2.jpg,,https://starbucks-mugs.com/mug/you-are-here-budapest-2/,,,Budapest,
Utrecht,city,,mug,,Netherlands,NL,You Are Here,2015,52.0907,5.1214,https://starbucks-mugs.com/wp-content/uploads/2018/01/yah_utrecht.jpg,,https://starbucks-mugs.com/mug/you-are-here-utrecht/,,,,
Prague 2,city,,mug,,Czech Republic,CZ,You Are Here,2015,50.0755,14.4378,https://starbucks-mugs.com/wp-content/uploads/2018/01/yah_prague_v2_1.jpg,,https://starbucks-mugs.com/mug/you-are-here-prague-2/,,,Prague,
New Delhi,city,,mug,,India,IN,You Are Here,2015,28.6139,77.209,https://starbucks-mugs.com/wp-content/uploads/2017/12/yah_new_delhi_1_407.jpg,,https://starbucks-mugs.com/mug/you-are-here-new-delhi/,,,,
Rotterdam,city,,mug,,Netherlands,NL,You Are Here,2015,51.9244,4.4777,https://starbucks-mugs.com/wp-content/uploads/2017/12/yah_rotterdam.jpg,,https://starbucks-mugs.com/mug/you-are-here-rotterdam/,,,,
Durban,city,,mug,,South Africa,ZA,You Are Here,2015,-29.8587,31.0218,https://starbucks-mugs.com/wp-content/uploads/2017/11/yah_durban_main.jpg,,https://starbucks-mugs.com/mug/you-are-here-durban/,,,,
Christmas Istanbul,city,,mug,,Turkey,TR,You Are Here,2015,41.0082,28.9784,https://starbucks-mugs.com/wp-content/uploads/2016/08/yah_christmas_istanbul.jpg,,https://starbucks-mugs.com/mug/you-are-here-christmas-istanbul/,,,,
Nurnberg,city,,mug,,Germany,DE,You Are Here,2015,49.4521,11.0767,https://starbucks-mugs.com/wp-content/uploads/2017/11/yah_nurnberg_main.jpg,,https://starbucks-mugs.com/mug/you-are-here-nurnberg/,,,,
Cameron Highlands,city,,mug,,Malaysia,MY,You Are Here,2015,4.4685,101.3786,https://starbucks-mugs.com/wp-content/uploads/2017/11/yah_cameron_highlands_main.jpg,,https://starbucks-mugs.com/mug/you-are-here-cameron-highlands/,,,,
Porto,city,,mug,,Portugal,PT,You Are Here,2015,41.1579,-8.6291,https://starbucks-mugs.com/wp-content/uploads/2017/11/yah_porto.jpg,,https://starbucks-mugs.com/mug/you-are-here-porto/,,,,
Stuttgart,city,,mug,,Germany,DE,You Are Here,2015,48.7758,9.1829,https://starbucks-mugs.com/wp-content/uploads/2017/11/yah_stuttgart.jpg,,https://starbucks-mugs.com/mug/you-are-here-stuttgart/,,,,
Austria,country,,mug,,Austria,AT,You Are Here,2015,0,0,https://starbucks-mugs.com/wp-content/uploads/2017/11/yah_austria.jpg,,https://starbucks-mugs.com/mug/you-are-here-austria/,,,,
Christmas Shanghai,city,,mug,,China,CN,You Are Here,2015,31.2304,121.4737,https://starbucks-mugs.com/wp-content/uploads/2017/11/yah_christmas_shanghai.jpg,,https://starbucks-mugs.com/mug/you-are-here-christmas-shanghai/,,,,
Christmas Nanjing,city,,mug,,China,CN,You Are Here,2015,32.0603,118.7969,https://starbucks-mugs.com/wp-content/uploads/2017/11/yah_christmas_nanjing.jpg,,https://starbucks-mugs.com/mug/you-are-here-christmas-nanjing/,,,,
Christmas Hangzhou,city,,mug,,China,CN,You Are Here,2015,30.2741,120.1551,https://starbucks-mugs.com/wp-content/uploads/2017/11/yahc_Hangzhou_main.jpg,,https://starbucks-mugs.com/mug/you-are-here-christmas-hangzhou/,,,,
Christmas Thailand,country,,mug,,Thailand,TH,You Are Here,2015,0,0,https://starbucks-mugs.com/wp-content/uploads/2017/11/yah_christmas_thailand.jpg,,https://starbucks-mugs.com/mug/you-are-here-christmas-thailand/,,,,
Christmas Prague 2,city,,mug,,Czech Republic,CZ,You Are Here,2015,50.0755,14.4378,https://starbucks-mugs.com/wp-content/uploads/2017/11/yahc_prague_v2_main.jpg,,https://starbucks-mugs.com/mug/you-are-here-christmas-prague-2/,,,Christmas Prague,
Christmas Madrid,city,,mug,,Spain,ES,You Are Here,2015,40.4168,-3.7038,https://starbucks-mugs.com/wp-content/uploads/2017/11/yah_christmas_madrid.jpg,,https://starbucks-mugs.com/mug/you-are-here-christmas-madrid/,,,,
Christmas Berlin 2,city,,mug,,Germany,DE,You Are Here,2015,52.52,13.405,https://starbucks-mugs.com/wp-content/uploads/2017/11/yahc_berlin_v2_main.jpg,,https://starbucks-mugs.com/mug/you-are-here-christmas-berlin-2/,,,Christmas Berlin,
Christmas Cebu,city,,mug,,Philippines,PH,You Are Here,2015,10.3157,123.8854,https://starbucks-mugs.com/wp-content/uploads/2017/11/yahc_cebu_1_1.jpg,,https://starbucks-mugs.com/mug/you-are-here-christmas-cebu/,,,,
Christmas Philippines,country,,mug,,Philippines,PH,You Are Here,2015,12.8797,121.774,https://starbucks-mugs.com/wp-content/uploads/2017/11/yahc_philippines_1.jpg,,https://starbucks-mugs.com/mug/you-are-here-christmas-philippines/,,,,
Christmas Manila,city,,mug,,Philippines,PH,You Are Here,2015,14.5995,120.9842,https://starbucks-mugs.com/wp-content/uploads/2017/10/yahc_manila_1_front.jpg,,https://starbucks-mugs.com/mug/you-are-here-christmas-manila/,,,,
Christmas Australia,country,,mug,,Australia,AU,You Are Here,2015,-25.2744,133.7751,https://starbucks-mugs.com/wp-content/uploads/2017/10/yah_christmas_australia.jpg,,https://starbucks-mugs.com/mug/you-are-here-christmas-australia/,,,,
Christmas Taipei,city,,mug,,Taiwan,TW,You Are Here,2015,25.033,121.5654,https://starbucks-mugs.com/wp-content/uploads/2017/10/yahc_taipei_main.jpg,,https://starbucks-mugs.com/mug/you-are-here-christmas-taipei/,,,,
Christmas Taiwan,country,,mug,,Taiwan,TW,You Are Here,2015,23.6978,120.9605,https://starbucks-mugs.com/wp-content/uploads/2017/10/yah_christmas_taiwan.jpg,,https://starbucks-mugs.com/mug/you-are-here-christmas-taiwan/,,,,
Christmas Moscow 2,city,,mug,,Russia,RU,You Are Here,2015,55.7558,37.6173,https://starbucks-mugs.com/wp-content/uploads/2017/10/yah_christmas_moscow_2.jpg,,https://starbucks-mugs.com/mug/you-are-here-christmas-moscow-2/,,,Christmas Moscow,
Christmas Macau,city,,mug,,China,CN,You Are Here,2015,22.1987,113.5439,https://starbucks-mugs.com/wp-content/uploads/2017/10/yah_christmas_macau.jpg,,https://starbucks-mugs.com/mug/you-are-here-christmas-macau/,,,,
Christmas Stockholm,city,,mug,,Sweden,SE,You Are Here,2015,59.3293,18.0686,https://starbucks-mugs.com/wp-content/uploads/2017/10/yah_christmas_stockholm.jpg,,https://starbucks-mugs.com/mug/you-are-here-christmas-stockholm/,,,,
Netherlands,country,,mug,,Netherlands,NL,You Are Here,2015,0,0,https://starbucks-mugs.com/wp-content/uploads/2017/10/yah_netherlands.jpg,,https://starbucks-mugs.com/mug/you-are-here-netherlands/,,,,
Lucerne,city,,mug,,Switzerland,CH,You Are Here,2015,47.0502,8.3093,https://starbucks-mugs.com/wp-content/uploads/2017/10/yah_lucerne-1.jpg,,https://starbucks-mugs.com/mug/you-are-here-lucerne/,,,,
Switzerland,country,,mug,,Switzerland,CH,You Are Here,2015,0,0,https://starbucks-mugs.com/wp-content/uploads/2017/10/yah_switzerland.jpg,,https://starbucks-mugs.com/mug/you-are-here-switzerland/,,,,
Christmas Amsterdam,city,,mug,,Netherlands,NL,You Are Here,2015,52.3676,4.9041,https://starbucks-mugs.com/wp-content/uploads/2017/10/yahc_amsterdam_main.jpg,,https://starbucks-mugs.com/mug/you-are-here-christmas-amsterdam/,,,,
Christmas Hong Kong,city,,mug,,China,CN,You Are Here,2015,22.3193,114.1694,https://starbucks-mugs.com/wp-content/uploads/2017/10/yah_christmas_hong_kong.jpg,,https://starbucks-mugs.com/mug/you-are-here-christmas-hong-kong/,,,,
Mumbai,city,,mug,,India,IN,You Are Here,2015,19.076,72.8777,https://starbucks-mugs.com/wp-content/uploads/2017/10/yah_mumbai_1_407.jpg,,https://starbucks-mugs.com/mug/you-are-here-mumbai/,,,,
Christmas Singapore,country,,mug,,Singapore,SG,You Are Here,2015,1.3521,103.8198,https://starbucks-mugs.com/wp-content/uploads/2017/10/yahc_singapore_main.jpg,,https://starbucks-mugs.com/mug/you-are-here-christmas-singapore/,,,,
Christmas London 2,city,,mug,,United Kingdom,GB,You Are Here,2015,51.5074,-0.1278,https://starbucks-mugs.com/wp-content/uploads/2017/10/yah_christmas_london_2.jpg,,https://starbucks-mugs.com/mug/you-are-here-christmas-london-2/,,,Christmas London,
Christmas Paris 2,city,,mug,,France,FR,You Are Here,2015,48.8566,2.3522,https://starbucks-mugs.com/wp-content/uploads/2017/11/yah_christmas_paris_2.jpg,,https://starbucks-mugs.com/mug/you-are-here-christmas-paris-2/,,,Christmas Paris,
Disney Epcot 3,city,,mug,,United States,US,You Are Here,2015,28.3747,-81.5494,https://starbucks-mugs.com/wp-content/uploads/2017/09/yah_epcot_3.jpg,,https://starbucks-mugs.com/mug/you-are-here-disney-epcot-3/,,,,
Disney California Adventure 2,city,,mug,,United States,US,You Are Here,2015,33.8049,-117.9212,https://starbucks-mugs.com/wp-content/uploads/2017/10/yah_disney_california_adventure_2.jpg,,https://starbucks-mugs.com/mug/you-are-here-disney-california-adventure-2/,,,Disney California Adventure,
Xiamen,city,,mug,,China,CN,You Are Here,2015,24.4798,118.0894,https://starbucks-mugs.com/wp-content/uploads/2017/09/yah_xiamen.jpg,,https://starbucks-mugs.com/mug/you-are-here-xiamen/,,,,
Nanjing,city,,mug,,China,CN,You Are Here,2015,32.0603,118.7969,https://starbucks-mugs.com/wp-content/uploads/2017/09/yah_nanjing.jpg,,https://starbucks-mugs.com/mug/you-are-here-nanjing/,,,,
Harbin,city,,mug,,China,CN,You Are Here,2015,45.8038,126.5349,https://starbucks-mugs.com/wp-content/uploads/2017/09/yah_harbin.jpg,,https://starbucks-mugs.com/mug/you-are-here-harbin/,,,,
Chongqing,city,,mug,,China,CN,You Are Here,2015,29.563,106.5516,https://starbucks-mugs.com/wp-content/uploads/2017/09/yah_chongqing.jpg,,https://starbucks-mugs.com/mug/you-are-here-chongqing/,,,,
Dalian,city,,mug,,China,CN,You Are Here,2015,38.914,121.6147,https://starbucks-mugs.com/wp-content/uploads/2017/09/yah_dalian.jpg,,https://starbucks-mugs.com/mug/you-are-here-dalian/,,,,
Nanning,city,,mug,,China,CN,You Are Here,2015,22.817,108.3665,https://starbucks-mugs.com/wp-content/uploads/2017/09/yah_nanning.jpg,,https://starbucks-mugs.com/mug/you-are-here-nanning/,,,,
Jinan,city,,mug,,China,CN,You Are Here,2015,36.6512,117.1201,https://starbucks-mugs.com/wp-content/uploads/2017/09/yah_jinan.jpg,,https://starbucks-mugs.com/mug/you-are-here-jinan/,,,,
Changsha,city,,mug,,China,CN,You Are Here,2015,28.2279,112.9388,https://starbucks-mugs.com/wp-content/uploads/2017/09/yah_changsha.jpg,,https://starbucks-mugs.com/mug/you-are-here-changsha/,,,,
Guangzhou,city,,mug,,China,CN,You Are Here,2015,23.1291,113.2644,https://starbucks-mugs.com/wp-content/uploads/2017/09/yah_guangzhou.jpg,,https://starbucks-mugs.com/mug/you-are-here-guangzhou/,,,,
Sanya,city,,mug,,China,CN,You Are Here,2015,18.2479,109.5117,https://starbucks-mugs.com/wp-content/uploads/2017/09/yah_sanya.jpg,,https://starbucks-mugs.com/mug/you-are-here-sanya/,,,,
Suzhou,city,,mug,,China,CN,You Are Here,2015,31.299,120.5853,https://starbucks-mugs.com/wp-content/uploads/2017/09/yah_suzhou.jpg,,https://starbucks-mugs.com/mug/you-are-here-suzhou/,,,,
Kunming,city,,mug,,China,CN,You Are Here,2015,24.8801,102.8329,https://starbucks-mugs.com/wp-content/uploads/2017/09/yah_kunming.jpg,,https://starbucks-mugs.com/mug/you-are-here-kunming/,,,,
Ningbo,city,,mug,,China,CN,You Are Here,2015,29.8683,121.544,https://starbucks-mugs.com/wp-content/uploads/2017/09/yah_ningbo.jpg,,https://starbucks-mugs.com/mug/you-are-here-ningbo/,,,,
Hangzhou,city,,mug,,China,CN,You Are Here,2015,30.2741,120.1551,https://starbucks-mugs.com/wp-content/uploads/2017/10/yah_Hangzhou_main.jpg,,https://starbucks-mugs.com/mug/you-are-here-hangzhou/,,,,
Shanghai,city,,mug,,China,CN,You Are Here,2015,31.2304,121.4737,https://starbucks-mugs.com/wp-content/uploads/2017/09/yah_shanghai.jpg,,https://starbucks-mugs.com/mug/you-are-here-shanghai/,,,,
Beijing,city,,mug,,China,CN,You Are Here,2015,39.9042,116.4074,https://starbucks-mugs.com/wp-content/uploads/2017/09/yah_beijing.jpg,,https://starbucks-mugs.com/mug/you-are-here-beijing/,,,,
Shenzhen,city,,mug,,China,CN,You Are Here,2015,22.5431,114.0579,https://starbucks-mugs.com/wp-content/uploads/2017/09/yah_shenzhen.jpg,,https://starbucks-mugs.com/mug/you-are-here-shenzhen/,,,,
Tsingtao,city,,mug,,China,CN,You Are Here,2015,36.0671,120.3826,https://starbucks-mugs.com/wp-content/uploads/2017/09/yah_tsingtao.jpg,,https://starbucks-mugs.com/mug/you-are-here-tsingtao/,,,,
Chengdu,city,,mug,,China,CN,You Are Here,2015,30.5728,104.0668,https://starbucks-mugs.com/wp-content/uploads/2017/09/yah_chengdu.jpg,,https://starbucks-mugs.com/mug/you-are-here-chengdu/,,,,
Adana,city,,mug,,Turkey,TR,You Are Here,2015,37,35.3213,https://starbucks-mugs.com/wp-content/uploads/2017/10/yah_adana_main.jpg,,https://starbucks-mugs.com/mug/you-are-here-adana/,,,,
Antalya,city,,mug,,Turkey,TR,You Are Here,2015,36.8969,30.7133,https://starbucks-mugs.com/wp-content/uploads/2017/10/yah_antalya_main.jpg,,https://starbucks-mugs.com/mug/you-are-here-antalya/,,,,
Xian,city,,mug,,China,CN,You Are Here,2015,34.2658,108.9541,https://starbucks-mugs.com/wp-content/uploads/2017/09/yah_xian.jpg,,https://starbucks-mugs.com/mug/you-are-here-xian/,,,,
Shenyang,city,,mug,,China,CN,You Are Here,2015,41.8057,123.4315,https://starbucks-mugs.com/wp-content/uploads/2017/09/yah_shenyang.jpg,,https://starbucks-mugs.com/mug/you-are-here-shenyang/,,,,
Wuxi,city,,mug,,China,CN,You Are Here,2015,31.5693,120.288,https://starbucks-mugs.com/wp-content/uploads/2017/09/yah_wuxi.jpg,,https://starbucks-mugs.com/mug/you-are-here-wuxi/,,,,
Wuhan,city,,mug,,China,CN,You Are Here,2015,30.5928,114.3055,https://starbucks-mugs.com/wp-content/uploads/2017/09/yah_wuhan.jpg,,https://starbucks-mugs.com/mug/you-are-here-wuhan/,,,,
Ankara,city,,mug,,Turkey,TR,You Are Here,2015,39.9334,32.8597,https://starbucks-mugs.com/wp-content/uploads/2017/09/yah_ankara.jpg,,https://starbucks-mugs.com/mug/you-are-here-ankara/,,,,
Disney Magic Kingdom 2,city,,mug,,United States,US,You Are Here,2015,28.4177,-81.5812,https://starbucks-mugs.com/wp-content/uploads/2017/09/yah_magic_kingdom_2.jpg,,https://starbucks-mugs.com/mug/you-are-here-disney-magic-kingdom-2/,,,Disney Magic Kingdom,
Japan,country,,mug,,Japan,JP,You Are Here,2015,0,0,https://starbucks-mugs.com/wp-content/uploads/2017/09/yah_japan.jpg,,https://starbucks-mugs.com/mug/you-are-here-japan/,,,,
Glasgow,city,,mug,,United Kingdom,GB,You Are Here,2015,55.8642,-4.2518,https://starbucks-mugs.com/wp-content/uploads/2017/09/yah_glasgow.jpg,,https://starbucks-mugs.com/mug/you-are-here-glasgow/,,,,
Disney Hollywood Studios 3,city,,mug,,United States,US,You Are Here,2015,28.3575,-81.5584,https://starbucks-mugs.com/wp-content/uploads/2017/09/yah_disney_hollywood_studios_3.jpg,,https://starbucks-mugs.com/mug/you-are-here-disney-hollywood-studios-3/,,,Disney Hollywood Studios,
Disney Animal Kingdom 2,city,,mug,,United States,US,You Are Here,2015,28.3553,-81.5899,https://starbucks-mugs.com/wp-content/uploads/2017/09/yah_disney_animal_kingdom_2.jpg,,https://starbucks-mugs.com/mug/you-are-here-disney-animal-kingdom-2/,,,Disney Animal Kingdom,
Dusseldorf,city,,mug,,Germany,DE,You Are Here,2015,51.2217,6.7762,https://starbucks-mugs.com/wp-content/uploads/2017/09/yah_dusseldorf.jpg,,https://starbucks-mugs.com/mug/you-are-here-dusseldorf/,,,,
England,city,,mug,,United Kingdom,GB,You Are Here,2015,52.3555,-1.1743,https://starbucks-mugs.com/wp-content/uploads/2017/09/yah_england.jpg,,https://starbucks-mugs.com/mug/you-are-here-england/,,,,
Siem Reap,city,,mug,,Cambodia,KH,You Are Here,2015,13.3633,103.8564,https://starbucks-mugs.com/wp-content/uploads/2017/08/yah_siem_reap_main.jpg,,https://starbucks-mugs.com/mug/you-are-here-siem-reap/,,,,
Den Haag,city,,mug,,Netherlands,NL,You Are Here,2015,52.0705,4.3007,https://starbucks-mugs.com/wp-content/uploads/2017/08/yah_den_haag-1.jpg,,https://starbucks-mugs.com/mug/you-are-here-den-haag/,,,,
Disney Disneyland 2,city,,mug,,United States,US,You Are Here,2015,33.8121,-117.919,https://starbucks-mugs.com/wp-content/uploads/2017/08/yah_disneyland_2.jpg,,https://starbucks-mugs.com/mug/you-are-here-disney-disneyland-2/,,,Disney Disneyland,
France,country,,mug,,France,FR,You Are Here,2015,0,0,https://starbucks-mugs.com/wp-content/uploads/2017/08/yah_france_main.jpg,,https://starbucks-mugs.com/mug/you-are-here-france/,,,,
Aberdeen,city,,mug,,United Kingdom,GB,You Are Here,2015,57.1497,-2.0943,https://starbucks-mugs.com/wp-content/uploads/2017/08/yah_aberdeen.jpg,,https://starbucks-mugs.com/mug/you-are-here-aberdeen/,,,,
Newcastle Upon Tyne,city,,mug,,United Kingdom,GB,You Are Here,2015,54.9783,-1.6178,https://starbucks-mugs.com/wp-content/uploads/2017/07/yah_newcastle_upon_tyne.jpg,,https://starbucks-mugs.com/mug/you-are-here-newcastle-upon-tyne/,,,,
Mykonos,city,,mug,,Greece,GR,You Are Here,2015,37.4467,25.3289,https://starbucks-mugs.com/wp-content/uploads/2017/07/yah_mykonos.jpg,,https://starbucks-mugs.com/mug/you-are-here-mykonos/,,,,
Marrakech,city,,mug,,Morocco,MA,You Are Here,2015,31.6295,-7.9811,https://starbucks-mugs.com/wp-content/uploads/2017/08/yah_marrakech.jpg,,https://starbucks-mugs.com/mug/you-are-here-marrakech/,,,,
Casablanca,city,,mug,,Morocco,MA,You Are Here,2015,33.5731,-7.5898,https://starbucks-mugs.com/wp-content/uploads/2017/08/yah_casablanca.jpg,,https://starbucks-mugs.com/mug/you-are-here-casablanca/,,,,
Roermond,city,,mug,,Netherlands,NL,You Are Here,2015,51.1934,5.9876,https://starbucks-mugs.com/wp-content/uploads/2017/07/yah_roermond.jpg,,https://starbucks-mugs.com/mug/you-are-here-roermond/,,,,
Kuching,city,,mug,,Malaysia,MY,You Are Here,2015,1.5533,110.3592,https://starbucks-mugs.com/wp-content/uploads/2024/03/yah_kuching_main.jpg,,https://starbucks-mugs.com/mug/you-are-here-kuching/,,,,
Salzburg,city,,mug,,Austria,AT,You Are Here,2015,47.8095,13.055,https://starbucks-mugs.com/wp-content/uploads/2017/06/yah_salzburg.jpg,,https://starbucks-mugs.com/mug/you-are-here-salzburg/,,,,
Lisboa,city,,mug,,Portugal,PT,You Are Here,2015,38.7223,-9.1393,https://starbucks-mugs.com/wp-content/uploads/2017/06/yah_lisboa.jpg,,https://starbucks-mugs.com/mug/you-are-here-lisboa/,,,,
Marseille,city,,mug,,France,FR,You Are Here,2015,43.2965,5.3698,https://starbucks-mugs.com/wp-content/uploads/2017/06/yah_marceille.jpg,,https://starbucks-mugs.com/mug/you-are-here-marseille/,,,,
Zurich,city,,mug,,Switzerland,CH,You Are Here,2015,47.3769,8.5417,https://starbucks-mugs.com/wp-content/uploads/2017/05/yah_zurich.jpg,,https://starbucks-mugs.com/mug/you-are-here-zurich/,,,,
Oslo,city,,mug,,Norway,NO,You Are Here,2015,59.9139,10.7522,https://starbucks-mugs.com/wp-content/uploads/2017/05/yah_oslo_main.jpg,,https://starbucks-mugs.com/mug/you-are-here-oslo/,,,,
Caerdydd,city,,mug,,United Kingdom,GB,You Are Here,2015,51.4816,-3.1791,https://starbucks-mugs.com/wp-content/uploads/2017/08/yah_caerdydd.jpg,,https://starbucks-mugs.com/mug/you-are-here-caerdydd/,,,,
Liverpool,city,,mug,,United Kingdom,GB,You Are Here,2015,53.4084,-2.9916,https://starbucks-mugs.com/wp-content/uploads/2017/05/yah_liverpool.jpg,,https://starbucks-mugs.com/mug/you-are-here-liverpool/,,,,
Oxford,city,,mug,,United Kingdom,GB,You Are Here,2015,51.752,-1.2577,https://starbucks-mugs.com/wp-content/uploads/2017/05/yah_oxford_main.jpg,,https://starbucks-mugs.com/mug/you-are-here-oxford/,,,,
Dresden,city,,mug,,Germany,DE,You Are Here,2015,51.0504,13.7373,https://starbucks-mugs.com/wp-content/uploads/2017/04/yah_dresden.jpg,,https://starbucks-mugs.com/mug/you-are-here-dresden/,,,,
Koln,city,,mug,,Germany,DE,You Are Here,2015,50.9333,6.95,https://starbucks-mugs.com/wp-content/uploads/2017/04/yah_koln_main.jpg,,https://starbucks-mugs.com/mug/you-are-here-koln/,,,,
Manchester,city,,mug,,United Kingdom,GB,You Are Here,2015,53.4808,-2.2426,https://starbucks-mugs.com/wp-content/uploads/2017/04/yah_manchester.jpg,,https://starbucks-mugs.com/mug/you-are-here-manchester/,,,,
Bacolod,city,,mug,,Philippines,PH,You Are Here,2015,10.6765,122.9509,https://starbucks-mugs.com/wp-content/uploads/2017/04/yah_bacolod_main.jpg,,https://starbucks-mugs.com/mug/you-are-here-bacolod/,,,,
Iloilo,city,,mug,,Philippines,PH,You Are Here,2015,10.7202,122.5621,https://starbucks-mugs.com/wp-content/uploads/2017/04/yah_iloilo_main.jpg,,https://starbucks-mugs.com/mug/you-are-here-iloilo/,,,,
Davao,city,,mug,,Philippines,PH,You Are Here,2015,7.1907,125.4553,https://starbucks-mugs.com/wp-content/uploads/2017/04/yah_davao_main.jpg,,https://starbucks-mugs.com/mug/you-are-here-davao/,,,,
Cagayan De Oro,city,,mug,,Philippines,PH,You Are Here,2015,8.4542,124.6319,https://starbucks-mugs.com/wp-content/uploads/2017/04/yah_cagayan_de_oro_main.jpg,,https://starbucks-mugs.com/mug/you-are-here-cagayan-de-oro/,,,,
Batangas,city,,mug,,Philippines,PH,You Are Here,2015,13.7565,121.0583,https://starbucks-mugs.com/wp-content/uploads/2017/04/yah_batangas_main.jpg,,https://starbucks-mugs.com/mug/you-are-here-batangas/,,,,
Bulacan,city,,mug,,Philippines,PH,You Are Here,2015,14.7943,120.876,https://starbucks-mugs.com/wp-content/uploads/2017/03/yah_bulacan.jpg,,https://starbucks-mugs.com/mug/you-are-here-bulacan/,,,,
Pampanga,city,,mug,,Philippines,PH,You Are Here,2015,15.0794,120.62,https://starbucks-mugs.com/wp-content/uploads/2017/04/yah_pampanga_front.jpg,,https://starbucks-mugs.com/mug/you-are-here-pampanga/,,,,
St Petersburg,city,,mug,,Russia,RU,You Are Here,2015,59.9311,30.3609,https://starbucks-mugs.com/wp-content/uploads/2017/03/yah_st_petersburg.jpg,,https://starbucks-mugs.com/mug/you-are-here-st-petersburg/,,,,
Thailand,country,,mug,,Thailand,TH,You Are Here,2015,0,0,https://starbucks-mugs.com/wp-content/uploads/2017/02/yah_thailand.jpg,,https://starbucks-mugs.com/mug/you-are-here-thailand/,,,,
Astana,city,,mug,,Kazakhstan,KZ,You Are Here,2015,51.1801,71.446,https://starbucks-mugs.com/wp-content/uploads/2017/02/yah_astana.jpg,,https://starbucks-mugs.com/mug/you-are-here-astana/,,,,
Baguio,city,,mug,,Philippines,PH,You Are Here,2015,16.4023,120.596,https://starbucks-mugs.com/wp-content/uploads/2017/02/yah_baguio-e1487962126698.jpg,,https://starbucks-mugs.com/mug/you-are-here-baguio/,,,,
Boracay,city,,mug,,Philippines,PH,You Are Here,2015,11.9674,121.9248,https://starbucks-mugs.com/wp-content/uploads/2017/02/yah_boracay-e1487962111417.jpg,,https://starbucks-mugs.com/mug/you-are-here-boracay/,,,,
Tagaytay,city,,mug,,Philippines,PH,You Are Here,2015,14.1053,120.9621,https://starbucks-mugs.com/wp-content/uploads/2017/02/yah_tagaytay-e1487962120267.jpg,,https://starbucks-mugs.com/mug/you-are-here-tagaytay/,,,,
Cebu,city,,mug,,Philippines,PH,You Are Here,2015,10.3157,123.8854,https://starbucks-mugs.com/wp-content/uploads/2017/02/yah_cebu.jpg,,https://starbucks-mugs.com/mug/you-are-here-cebu/,,,,
Makati,city,,mug,,Philippines,PH,You Are Here,2015,14.5547,121.0244,https://starbucks-mugs.com/wp-content/uploads/2017/02/yah_makati.jpg,,https://starbucks-mugs.com/mug/you-are-here-makati/,,,,
Manila,city,,mug,,Philippines,PH,You Are Here,2015,14.5995,120.9842,https://starbucks-mugs.com/wp-content/uploads/2017/02/yah_manila.jpg,,https://starbucks-mugs.com/mug/you-are-here-manila/,,,,
Quezon City,city,,mug,,Philippines,PH,You Are Here,2015,14.676,121.0437,https://starbucks-mugs.com/wp-content/uploads/2017/02/yah_quezon_city.jpg,,https://starbucks-mugs.com/mug/you-are-here-quezon-city/,,,,
Philippines,country,,mug,,Philippines,PH,You Are Here,2015,12.8797,121.774,https://starbucks-mugs.com/wp-content/uploads/2017/02/yah_philippines.jpg,,https://starbucks-mugs.com/mug/you-are-here-philippines/,,,,
Disney Hollywood Studios 2,city,,mug,,United States,US,You Are Here,2015,28.3575,-81.5584,https://starbucks-mugs.com/wp-content/uploads/2017/01/yah_disney_hollywood_studios_2.jpg,,https://starbucks-mugs.com/mug/you-are-here-disney-hollywood-studios-2/,,,Disney Hollywood Studios,
Brussels,city,,mug,,Belgium,BE,You Are Here,2015,50.8503,4.3517,https://starbucks-mugs.com/wp-content/uploads/2016/12/yah_brussels.jpg,,https://starbucks-mugs.com/mug/you-are-here-brussels/,,,,
Universal Orlando Resort,city,,mug,Florida,United States,US,You Are Here,2015,28.4772,-81.468,https://starbucks-mugs.com/wp-content/uploads/2016/12/yah_disney_universal_orlando_resort.jpg,,https://starbucks-mugs.com/mug/you-are-here-universal-orlando-resort/,,,,
Universal Studios Hollywood,city,,mug,California,United States,US,You Are Here,2015,34.1381,-118.3534,https://starbucks-mugs.com/wp-content/uploads/2016/12/yah_universal_studios_hollywood.jpg,,https://starbucks-mugs.com/mug/you-are-here-universal-studios-hollywood/,,,,
Taiwan,country,,mug,,Taiwan,TW,You Are Here,2015,23.6978,120.9605,https://starbucks-mugs.com/wp-content/uploads/2016/11/yah_taiwan.jpg,,https://starbucks-mugs.com/mug/you-are-here-taiwan/,,,,
Taipei,city,,mug,,Taiwan,TW,You Are Here,2015,25.033,121.5654,https://starbucks-mugs.com/wp-content/uploads/2016/11/yah_taipei.jpg,,https://starbucks-mugs.com/mug/you-are-here-taipei/,,,,
Taichung,city,,mug,,Taiwan,TW,You Are Here,2015,24.1477,120.6736,https://starbucks-mugs.com/wp-content/uploads/2016/11/yah_taichung.jpg,,https://starbucks-mugs.com/mug/you-are-here-taichung/,,,,
Tainan,city,,mug,,Taiwan,TW,You Are Here,2015,22.9999,120.2269,https://starbucks-mugs.com/wp-content/uploads/2016/11/yah_tainan.jpg,,https://starbucks-mugs.com/mug/you-are-here-tainan/,,,,
Kaohsiung,city,,mug,,Taiwan,TW,You Are Here,2015,22.6273,120.3014,https://starbucks-mugs.com/wp-content/uploads/2016/11/yah_kaohsiung.jpg,,https://starbucks-mugs.com/mug/you-are-here-kaohsiung/,,,,
Budapest,city,,mug,,Hungary,HU,You Are Here,2015,47.4979,19.0402,https://starbucks-mugs.com/wp-content/uploads/2016/11/yah_budapest.jpg,,https://starbucks-mugs.com/mug/you-are-here-budapest/,,,,
Queenstown,city,,mug,,New Zealand,NZ,You Are Here,2015,-45.0312,168.6626,https://starbucks-mugs.com/wp-content/uploads/2016/10/yah_queenstown.jpg,,https://starbucks-mugs.com/mug/you-are-here-queenstown/,,,,
Sydney,city,,mug,,Australia,AU,You Are Here,2015,-33.8688,151.2093,https://starbucks-mugs.com/wp-content/uploads/2016/11/yah_sydney.jpg,,https://starbucks-mugs.com/mug/you-are-here-sydney/,,,,
Melbourne,city,,mug,,Australia,AU,You Are Here,2015,-37.8136,144.9631,https://starbucks-mugs.com/wp-content/uploads/2016/11/yah_melbourne.jpg,,https://starbucks-mugs.com/mug/you-are-here-melbourne/,,,,
Gold Coast,city,,mug,,Australia,AU,You Are Here,2015,-28.0167,153.3999,https://starbucks-mugs.com/wp-content/uploads/2016/10/yah_gold_coast.jpg,,https://starbucks-mugs.com/mug/you-are-here-gold-coast/,,,,
Brisbane,city,,mug,,Australia,AU,You Are Here,2015,-27.4698,153.0251,https://starbucks-mugs.com/wp-content/uploads/2016/11/yah_brisbane.jpg,,https://starbucks-mugs.com/mug/you-are-here-brisbane/,,,,
Australia,country,,mug,,Australia,AU,You Are Here,2015,-25.2744,133.7751,https://starbucks-mugs.com/wp-content/uploads/2016/11/yah_australia.jpg,,https://starbucks-mugs.com/mug/you-are-here-australia/,,,,
Toulouse,city,,mug,,France,FR,You Are Here,2015,43.6047,1.4442,https://starbucks-mugs.com/wp-content/uploads/2016/10/yah_toulouse_main.jpg,,https://starbucks-mugs.com/mug/you-are-here-toulouse/,,,,
Christmas Prague,city,,mug,,Czech Republic,CZ,You Are Here,2015,50.0755,14.4378,https://starbucks-mugs.com/wp-content/uploads/2017/11/yahc_prague_v1_main.jpg,,https://starbucks-mugs.com/mug/you-are-here-christmas-prague/,,,,
Christmas London,city,,mug,,United Kingdom,GB,You Are Here,2015,51.5074,-0.1278,https://starbucks-mugs.com/wp-content/uploads/2016/10/yah_christmas_london.jpg,,https://starbucks-mugs.com/mug/you-are-here-christmas-london/,,,,
Christmas Moscow,city,,mug,,Russia,RU,You Are Here,2015,55.7558,37.6173,https://starbucks-mugs.com/wp-content/uploads/2016/11/yah_christmas_moscow.jpg,,https://starbucks-mugs.com/mug/you-are-here-christmas-moscow/,,,,
Christmas Barcelona,city,,mug,,Spain,ES,You Are Here,2015,41.3851,2.1734,,,https://starbucks-mugs.com/mug/you-are-here-christmas-barcelona/,,,,
Christmas Paris,city,,mug,,France,FR,You Are Here,2015,48.8566,2.3522,https://starbucks-mugs.com/wp-content/uploads/2016/11/yah_christmas_paris.jpg,,https://starbucks-mugs.com/mug/you-are-here-christmas-paris/,,,,
Christmas Berlin,city,,mug,,Germany,DE,You Are Here,2015,52.52,13.405,https://starbucks-mugs.com/wp-content/uploads/2016/11/yah_christmas_berlin.jpg,,https://starbucks-mugs.com/mug/you-are-here-christmas-berlin/,,,,
Phnom Penh,city,,mug,,Cambodia,KH,You Are Here,2015,11.5564,104.9282,https://starbucks-mugs.com/wp-content/uploads/2016/10/yah_phnom_penh_main.jpg,,https://starbucks-mugs.com/mug/you-are-here-phnom-penh/,,,,
Bodrum,city,,mug,,Turkey,TR,You Are Here,2015,37.0344,27.4305,https://starbucks-mugs.com/wp-content/uploads/2016/09/yah_bodrum.jpg,,https://starbucks-mugs.com/mug/you-are-here-bodrum/,,,,
Prague,city,,mug,,Czech Republic,CZ,You Are Here,2015,50.0755,14.4378,https://starbucks-mugs.com/wp-content/uploads/2016/09/yah_prague_v1_1.jpg,,https://starbucks-mugs.com/mug/you-are-here-prague/,,,,
Ramstein,city,,mug,,Germany,DE,You Are Here,2015,49.4369,7.557,https://starbucks-mugs.com/wp-content/uploads/2016/09/yah_ramstein.jpg,,https://starbucks-mugs.com/mug/you-are-here-ramstein/,,,,
Izmir,city,,mug,,Turkey,TR,You Are Here,2015,38.4192,27.1287,https://starbucks-mugs.com/wp-content/uploads/2016/09/yah_izmir.jpg,,https://starbucks-mugs.com/mug/you-are-here-izmir/,,,,
Pretoria,city,,mug,,South Africa,ZA,You Are Here,2015,-25.7479,28.2293,https://starbucks-mugs.com/wp-content/uploads/2016/09/yah_pretoria_main.jpg,,https://starbucks-mugs.com/mug/you-are-here-pretoria/,,,,
Cannes,city,,mug,,France,FR,You Are Here,2015,43.5528,7.0174,https://starbucks-mugs.com/wp-content/uploads/2017/01/yah_cannes.jpg,,https://starbucks-mugs.com/mug/you-are-here-cannes/,,,,
Birmingham,city,,mug,,United Kingdom,GB,You Are Here,2015,52.4862,-1.8904,https://starbucks-mugs.com/wp-content/uploads/2016/08/yah-birmingham.jpg,,https://starbucks-mugs.com/mug/you-are-here-birmingham/,,,,
Frankfurt,city,,mug,,Germany,DE,You Are Here,2015,50.1109,8.6821,https://starbucks-mugs.com/wp-content/uploads/2016/09/yah_frankfurt.jpg,,https://starbucks-mugs.com/mug/you-are-here-frankfurt/,,,,
Vietnam,country,,mug,,Vietnam,VN,You Are Here,2015,14.0583,108.2772,https://starbucks-mugs.com/wp-content/uploads/2016/08/yah_vietnam.jpg,,https://starbucks-mugs.com/mug/you-are-here-vietnam/,,,,
Ho Chi Minh City,city,,mug,,Vietnam,VN,You Are Here,2015,10.8231,106.6297,https://starbucks-mugs.com/wp-content/uploads/2016/08/yah_ho_chi_minh_v1_main.jpg,,https://starbucks-mugs.com/mug/you-are-here-ho-chi-minh-city/,,,,
Hanoi,city,,mug,,Vietnam,VN,You Are Here,2015,21.0285,105.8542,https://starbucks-mugs.com/wp-content/uploads/2016/09/yah_hanoi.jpg,,https://starbucks-mugs.com/mug/you-are-here-hanoi/,,,,
Dubai,city,,mug,,United Arab Emirates,AE,You Are Here,2015,25.2048,55.2708,https://starbucks-mugs.com/wp-content/uploads/2016/09/yah_dubai.jpg,,https://starbucks-mugs.com/mug/you-are-here-dubai/,,,,
Istanbul,city,,mug,,Turkey,TR,You Are Here,2015,41.0082,28.9784,https://starbucks-mugs.com/wp-content/uploads/2016/08/yah_istanbul.jpg,,https://starbucks-mugs.com/mug/you-are-here-istanbul/,,,,
Madrid,city,,mug,,Spain,ES,You Are Here,2015,40.4168,-3.7038,https://starbucks-mugs.com/wp-content/uploads/2016/09/yah_madrid.jpg,,https://starbucks-mugs.com/mug/you-are-here-madrid/,,,,
Barcelona,city,,mug,,Spain,ES,You Are Here,2015,41.3851,2.1734,https://starbucks-mugs.com/wp-content/uploads/2016/09/yah_barcelona.jpg,,https://starbucks-mugs.com/mug/you-are-here-barcelona/,,,,
Johannesburg,city,,mug,,South Africa,ZA,You Are Here,2015,-26.2041,28.0473,https://starbucks-mugs.com/wp-content/uploads/2016/09/yah_johannesburg.jpg,,https://starbucks-mugs.com/mug/you-are-here-johannesburg/,,,,
Singapore 2,country,,mug,,Singapore,SG,You Are Here,2015,1.3521,103.8198,https://starbucks-mugs.com/wp-content/uploads/2016/09/yah_singapore2.jpg,,https://starbucks-mugs.com/mug/you-are-here-singapore-2/,,,,
Singapore 1,country,,mug,,Singapore,SG,You Are Here,2015,1.3521,103.8198,https://starbucks-mugs.com/wp-content/uploads/2016/09/yah_singapore1.jpg,,https://starbucks-mugs.com/mug/you-are-here-singapore-1/,,,,
Edinburgh,city,,mug,,United Kingdom,GB,You Are Here,2015,55.9533,-3.1883,https://starbucks-mugs.com/wp-content/uploads/2016/09/yah_edinburgh.jpg,,https://starbucks-mugs.com/mug/you-are-here-edinburgh/,,,,
Moscow,city,,mug,,Russia,RU,You Are Here,2015,55.7558,37.6173,https://starbucks-mugs.com/wp-content/uploads/2016/09/yah_moscow.jpg,,https://starbucks-mugs.com/mug/you-are-here-moscow/,,,,
Amsterdam,city,,mug,,Netherlands,NL,You Are Here,2015,52.3676,4.9041,https://starbucks-mugs.com/wp-content/uploads/2016/09/yah_amsterdam.jpg,,https://starbucks-mugs.com/mug/you-are-here-amsterdam/,,,,
Kuwait,country,,mug,,Kuwait,KW,You Are Here,2015,0,0,https://starbucks-mugs.com/wp-content/uploads/2016/09/yah_kuwait.jpg,,https://starbucks-mugs.com/mug/you-are-here-kuwait/,,,,
Athens,city,,mug,Georgia,United States,US,You Are Here,2015,33.9519,-83.3576,https://starbucks-mugs.com/wp-content/uploads/2016/09/yah_athens.jpg,,https://starbucks-mugs.com/mug/you-are-here-athens/,,,,
Munchen,city,,mug,,Germany,DE,You Are Here,2015,48.1351,11.582,https://starbucks-mugs.com/wp-content/uploads/2016/08/yah_munchen.jpg,,https://starbucks-mugs.com/mug/you-are-here-munchen/,,,,
Hamburg,city,,mug,,Germany,DE,You Are Here,2015,53.5753,9.995,https://starbucks-mugs.com/wp-content/uploads/2016/09/yah_hamburg.jpg,,https://starbucks-mugs.com/mug/you-are-here-hamburg/,,,,
Berlin,city,,mug,,Germany,DE,You Are Here,2015,52.52,13.405,https://starbucks-mugs.com/wp-content/uploads/2016/09/yah_berlin.jpg,,https://starbucks-mugs.com/mug/you-are-here-berlin/,,,,
Strasbourg,city,,mug,,France,FR,You Are Here,2015,48.5734,7.7521,https://starbucks-mugs.com/wp-content/uploads/2016/09/yah_strasbourg.jpg,,https://starbucks-mugs.com/mug/you-are-here-strasbourg/,,,,
Paris,city,,mug,,France,FR,You Are Here,2015,48.8566,2.3522,https://starbucks-mugs.com/wp-content/uploads/2016/11/yah_paris.jpg,,https://starbucks-mugs.com/mug/you-are-here-paris/,,,,
Nantes,city,,mug,,France,FR,You Are Here,2015,47.2184,-1.5536,https://starbucks-mugs.com/wp-content/uploads/2016/08/yah_nantes_main.jpg,,https://starbucks-mugs.com/mug/you-are-here-nantes/,,,,
London,city,,mug,,United Kingdom,GB,You Are Here,2015,51.5074,-0.1278,https://starbucks-mugs.com/wp-content/uploads/2016/09/yah_london.jpg,,https://starbucks-mugs.com/mug/you-are-here-london/,,,,
Macau,city,,mug,,China,CN,You Are Here,2015,22.1987,113.5439,https://starbucks-mugs.com/wp-content/uploads/2016/09/yah_macau.jpg,,https://starbucks-mugs.com/mug/you-are-here-macau/,,,,
Hong Kong,city,,mug,,China,CN,You Are Here,2015,22.3193,114.1694,https://starbucks-mugs.com/wp-content/uploads/2016/09/yah_hong_kong.jpg,,https://starbucks-mugs.com/mug/you-are-here-hong-kong/,,,,
Stockholm,city,,mug,,Sweden,SE,You Are Here,2015,59.3293,18.0686,https://starbucks-mugs.com/wp-content/uploads/2016/09/yah_stockholm.jpg,,https://starbucks-mugs.com/mug/you-are-here-stockholm/,,,,
Copenhagen,city,,mug,,Denmark,DK,You Are Here,2015,55.6761,12.5683,https://starbucks-mugs.com/wp-content/uploads/2016/08/yah_copenhagen.jpg,,https://starbucks-mugs.com/mug/you-are-here-copenhagen/,,,,
Vienna,city,,mug,,Austria,AT,You Are Here,2015,48.2082,16.3738,https://starbucks-mugs.com/wp-content/uploads/2016/09/yah_vienna.jpg,,https://starbucks-mugs.com/mug/you-are-here-vienna/,,,,
Christmas Pike Place Market,city,,mug,,United States,US,You Are Here,2015,47.6097,-122.3425,https://starbucks-mugs.com/wp-content/uploads/2016/08/yah_christmas_ppm.jpg,,https://starbucks-mugs.com/mug/you-are-here-christmas-pike-place-market/,,,,
Christmas Hawaii,state,,mug,Hawaii,United States,US,You Are Here,2015,19.8968,-155.5828,https://starbucks-mugs.com/wp-content/uploads/2016/08/yahc_hawaii_main.jpg,,https://starbucks-mugs.com/mug/you-are-here-christmas-hawaii/,,,,
Utah,state,,mug,Utah,United States,US,You Are Here,2015,39.321,-111.0937,https://starbucks-mugs.com/wp-content/uploads/2016/08/yah_utah_main.jpg,,https://starbucks-mugs.com/mug/you-are-here-utah/,,,,
Oregon,state,,mug,Oregon,United States,US,You Are Here,2015,44.572,-122.0709,https://starbucks-mugs.com/wp-content/uploads/2016/09/yah_oregon.jpg,,https://starbucks-mugs.com/mug/you-are-here-oregon/,,,,
Illinois,state,,mug,Illinois,United States,US,You Are Here,2015,40.6331,-89.3985,https://starbucks-mugs.com/wp-content/uploads/2016/09/yah_illinois.jpg,,https://starbucks-mugs.com/mug/you-are-here-illinois/,,,,
Whistler,city,,mug,British Columbia,Canada,CA,You Are Here,2015,50.1163,-122.9574,https://starbucks-mugs.com/wp-content/uploads/2016/09/yah_whistler.jpg,,https://starbucks-mugs.com/mug/you-are-here-whistler/,,,,
Vancouver Island,city,,mug,British Columbia,Canada,CA,You Are Here,2015,49.6508,-125.4493,https://starbucks-mugs.com/wp-content/uploads/2016/09/yah_vancouver_island.jpg,,https://starbucks-mugs.com/mug/you-are-here-vancouver-island/,,,,
Vancouver,city,,mug,,Canada,CA,You Are Here,2015,49.2827,-123.1207,https://starbucks-mugs.com/wp-content/uploads/2016/09/yah_vancouver.jpg,,https://starbucks-mugs.com/mug/you-are-here-vancouver/,,,,
Toronto,city,,mug,,Canada,CA,You Are Here,2015,43.6532,-79.3832,https://starbucks-mugs.com/wp-content/uploads/2016/09/yah_toronto.jpg,,https://starbucks-mugs.com/mug/you-are-here-toronto/,,,,
Niagara Falls,city,,mug,New York,United States,US,You Are Here,2015,43.0962,-79.0377,https://starbucks-mugs.com/wp-content/uploads/2016/09/yah_niagara_falls.jpg,,https://starbucks-mugs.com/mug/you-are-here-niagara-falls/,,,,
Montreal 2,city,,mug,,Canada,CA,You Are Here,2015,45.5017,-73.5673,https://starbucks-mugs.com/wp-content/uploads/2016/09/yah_montreal_2.jpg,,https://starbucks-mugs.com/mug/you-are-here-montreal-2/,,,,
Montreal 1,city,,mug,,Canada,CA,You Are Here,2015,45.5017,-73.5673,https://starbucks-mugs.com/wp-content/uploads/2016/09/yah_montreal_1-1.jpg,,https://starbucks-mugs.com/mug/you-are-here-montreal-1/,,,,
